{
"type": "FeatureCollection",
"name": "Untitled layer",
"crs": { "type": "name", "properties": { "name": "urn:ogc:def:crs:OGC:1.3:CRS84" } },
"features": [
{ "type": "Feature", "properties": { "Name": "Ashford Hospital", "description": "London Rd, Ashford, Surrey TW15, UK" }, "geometry": { "type": "Point", "coordinates": [ -0.471619, 51.444861 ] } },
{ "type": "Feature", "properties": { "Name": "Brighton General Hospital", "description": "Elm Grove, Brighton, Brighton and Hove BN2, UK" }, "geometry": { "type": "Point", "coordinates": [ -0.114151, 50.830848 ] } },
{ "type": "Feature", "properties": { "Name": "Broadmoor Hospital", "description": "Crowthorne, Berkshire, RG45 7EG<br><br>more info » (http:\/\/maps.google.co.uk\/maps?f=q&hl=en&geocode=&q=Broadmoor+Hospital&jsv=140g&sll=51.198279,-0.12085&sspn=1.554135,3.339844&ie=UTF8&latlng=51369128,-778720,3412224787320491737&ei=-BVJScqCPYmGNKL3xTA&sig2=mqs1L4Rg8rt59sx9nYOc1w&cd=1)" }, "geometry": { "type": "Point", "coordinates": [ -0.77872, 51.369128 ] } },
{ "type": "Feature", "properties": { "Name": "Conquest Hospital", "description": "The Ridge, Hastings, East Sussex TN37, UK" }, "geometry": { "type": "Point", "coordinates": [ 0.567737, 50.885305 ] } },
{ "type": "Feature", "properties": { "Name": "Crawley Hospital", "description": "W Green Dr, Crawley, West Sussex RH11, UK" }, "geometry": { "type": "Point", "coordinates": [ -0.197559, 51.116537 ] } },
{ "type": "Feature", "properties": { "Name": "Darent Valley Hospital", "description": "Darenth Wood Rd, Dartford, Kent DA2, UK" }, "geometry": { "type": "Point", "coordinates": [ 0.258188, 51.435004 ] } },
{ "type": "Feature", "properties": { "Name": "Eastbourne District General Hospital", "description": "Eastbourne Dist Gen Hospital<br>Kings Drive, BN21 2UD<br><br>more info » (http:\/\/maps.google.co.uk\/maps?f=q&hl=en&geocode=&q=eastbourne+district+general+hospital,+eastbourne&jsv=140g&sll=51.435004,0.258188&sspn=0.012079,0.026093&ie=UTF8&latlng=50786204,270243,3190245516523963637&ei=XhZJScT9DIW8NtHIoDE&sig2=qhPdQgK3NDVg9Wgt0eBTtw&cd=1)" }, "geometry": { "type": "Point", "coordinates": [ 0.270243, 50.786204 ] } },
{ "type": "Feature", "properties": { "Name": "East Surrey Hospital", "description": "Canada Ave, Redhill, Surrey RH1, UK" }, "geometry": { "type": "Point", "coordinates": [ -0.161271, 51.218548 ] } },
{ "type": "Feature", "properties": { "Name": "Frimley Park Hospital", "description": "Portsmouth Road<br>Frimley, Camberley, GU16<br><br>more info » (http:\/\/maps.google.co.uk\/maps?f=q&hl=en&geocode=&q=frimley+park+hospital,+frimley&jsv=140g&sll=51.218548,-0.161271&sspn=0.012136,0.026093&ie=UTF8&latlng=51317643,-743138,1375832796130647496&ei=lhZJSfGRDIqsNrTkkC8&sig2=wBwJUvv8j2JwvUTZItbUAw&cd=1)" }, "geometry": { "type": "Point", "coordinates": [ -0.743138, 51.317643 ] } },
{ "type": "Feature", "properties": { "Name": "Kent & Sussex Hospital, Tunbridge Wells", "description": "Kent & Sussex Hospital<br>Mount Ephraim, TN4 8AT<br><br>more info » (http:\/\/maps.google.co.uk\/maps?f=q&hl=en&geocode=&q=kent+and+sussex+hospital,+tunbridge+wells&jsv=140g&sll=51.318453,-0.741907&sspn=0.01211,0.026093&ie=UTF8&latlng=51136772,259031,9659334860502789963&ei=CBdJScK1KYL0NP_e1Dk&sig2=Z1hKPug5dKZtD0cGn9GLLQ&cd=1)" }, "geometry": { "type": "Point", "coordinates": [ 0.259031, 51.136772 ] } },
{ "type": "Feature", "properties": { "Name": "Medway Maritime Hospital", "description": "Windmill Rd<br>Gillingham, Kent, ME7 5NY<br><br>more info » (http:\/\/maps.google.co.uk\/maps?f=q&hl=en&q=Medway+Maritime+Hospital,+Gillingham,+Medway+ME7,+United+Kingdom&jsv=140g&sll=51.136772,0.259032&sspn=0.012158,0.026093&ie=UTF8&cd=1&geocode=FRH9DwMdsEUIAA&latlng=51378922,544387,13154480845354910968&ei=JBdJScPEC4z0NaG8xCo&sig2=e1631UNYeqJpUfDU1EIwsQ)" }, "geometry": { "type": "Point", "coordinates": [ 0.544387, 51.378922 ] } },
{ "type": "Feature", "properties": { "Name": "Woodingdean, Nuffield Hospital (W-bound)", "description": "more info » (http:\/\/maps.google.co.uk\/maps?f=q&hl=en&geocode=&q=nuffield+hospital+brighton&jsv=140g&sll=51.379361,0.543265&sspn=0.011772,0.026093&ie=UTF8&cd=1&latlng=50835220,-82820,5877199751990980965&ei=WxdJSYWCJY2ANsSqnCs&sig2=QVAwAHhHFVLpbEGaM8OukQ)" }, "geometry": { "type": "Point", "coordinates": [ -0.08282, 50.83522 ] } },
{ "type": "Feature", "properties": { "Name": "Princess Royal Hospital", "description": "The Princess Royal Hospital, Lewes Rd<br>Haywards Heath, West Sussex, RH16 4EX<br><br>more info » (http:\/\/maps.google.co.uk\/maps?f=q&hl=en&geocode=&q=princess+royal+hospital,+haywards+heath&jsv=140g&sll=50.913443,-0.109423&sspn=0.38054,0.834961&ie=UTF8&latlng=50991133,-91059,13529927412426018691&ei=dRdJScqGC4usNvzszDE&sig2=68vGyoCAyFZAq0OxkLOyWg&cd=1)" }, "geometry": { "type": "Point", "coordinates": [ -0.091059, 50.991133 ] } },
{ "type": "Feature", "properties": { "Name": "Queen Elizabeth The Queen Mother Hospital", "description": "Ramsgate Road, Margate, Kent<br><br>more info » (http:\/\/maps.google.co.uk\/maps?f=q&hl=en&geocode=&q=queen+elizabeth+the+queen+mother+hospital,+margate&jsv=140g&sll=50.991682,-0.09072&sspn=0.3799,0.834961&ie=UTF8&latlng=51375922,1386985,4631454472192594335&ei=nBdJSYnDO4jWNZGZpD4&sig2=lv7wa43C2ombjNuRR6NAzA&cd=1)" }, "geometry": { "type": "Point", "coordinates": [ 1.386985, 51.375922 ] } },
{ "type": "Feature", "properties": { "Name": "Royal Sussex County Hospital", "description": "Royal Sussex County Hospital, Eastern Rd<br>Brighton, East Sussex, BN2 5BE<br><br>more info » (http:\/\/maps.google.co.uk\/maps?f=q&hl=en&geocode=&q=royal+sussex+county+hospital+brighton&jsv=140g&sll=51.375922,1.386985&sspn=0.023547,0.052185&ie=UTF8&latlng=50819400,-118161,10798015638112885883&ei=sxdJSc_sNo3ENsifzTM&sig2=z28ni7cG52E3QiimNWDdGQ&cd=1)" }, "geometry": { "type": "Point", "coordinates": [ -0.118161, 50.8194 ] } },
{ "type": "Feature", "properties": { "Name": "Royal Alexandra Childrens Hospital", "description": "Royal Sussex County Hospital, Eastern Rd<br>Brighton, East Sussex, BN2 5BE<br><br>more info » (http:\/\/maps.google.co.uk\/maps?f=q&hl=en&geocode=&q=royal+alexandra+hospital,+brighton&jsv=140g&sll=50.819647,-0.117016&sspn=0.011916,0.026093&ie=UTF8&latlng=50819400,-118161,10798015638112885883&ei=zRdJSexjjcQ2yJ_NMw&sig2=dGhUjvu0cijbNFnCSUWPtA&cd=1)" }, "geometry": { "type": "Point", "coordinates": [ -0.118161, 50.8194 ] } },
{ "type": "Feature", "properties": { "Name": "Royal Surrey County Hospital", "description": "more info » (http:\/\/maps.google.co.uk\/maps?f=q&hl=en&geocode=&q=royal+surrey+county+hospital,+guildford&jsv=140g&sll=50.8194,-0.118161&sspn=0.023832,0.052185&ie=UTF8&latlng=51240440,-608880,3470664930436822237&ei=7BdJScWSC4fSM92oyDY&sig2=gJ_o02Mhh4XHZyZgSrbd8A&cd=1)" }, "geometry": { "type": "Point", "coordinates": [ -0.60888, 51.24044 ] } },
{ "type": "Feature", "properties": { "Name": "Shoreham-by-Sea, Southlands Hospital (S-bound)", "description": null }, "geometry": { "type": "Point", "coordinates": [ -0.25547, 50.84077 ] } },
{ "type": "Feature", "properties": { "Name": "St Peters Hospital", "description": "Guildford Rd<br>Chertsey, Surrey, KT16 0PZ<br><br>more info » (http:\/\/maps.google.co.uk\/maps?f=q&hl=en&geocode=&q=St+Peter)" }, "geometry": { "type": "Point", "coordinates": [ -0.5265, 51.375179 ] } },
{ "type": "Feature", "properties": { "Name": "St Richards Hospital", "description": "Spitalfield Lane<br>Chichester, PO19<br><br>more info » (http:\/\/maps.google.co.uk\/maps?f=q&hl=en&geocode=&q=st+richard)" }, "geometry": { "type": "Point", "coordinates": [ -0.768023, 50.843496 ] } },
{ "type": "Feature", "properties": { "Name": "William Harvey Hospital, Ashford", "description": "Kennington Road<br>Willesborough, Ashford, TN24<br><br>more info » (http:\/\/maps.google.co.uk\/maps?f=q&hl=en&geocode=&q=william+harvey+hospital,+ashford&jsv=140g&sll=50.843496,-0.768023&sspn=0.02382,0.052185&ie=UTF8&latlng=51141425,916246,5756971981329838861&ei=fRhJSdHiCoqwNoncsTk&sig2=B0h3-KKyjT7ILTxLyhOzcQ&cd=1)" }, "geometry": { "type": "Point", "coordinates": [ 0.916246, 51.141425 ] } },
{ "type": "Feature", "properties": { "Name": "Worthing Hospital", "description": "Lyndhurst Rd, Worthing, West Sussex BN11, UK" }, "geometry": { "type": "Point", "coordinates": [ -0.36431, 50.81669 ] } },
{ "type": "Feature", "properties": { "Name": "Coldeast Hospital, Hampshire", "description": "By: Ian - ‎‎ -  Development 150 units, Fareham, SSO31 7EN<br>Project: IRS Strategy and Procurement<br>Client: Miller Homes<br> <br>more info » (http:\/\/maps.google.co.uk\/maps?f=q&hl=en&geocode=&q=coldeast+hospital&jsv=140g&sll=51.361492,-0.648193&sspn=1.507463,3.339844&ie=UTF8&latlng=50875526,-1283796,4025965248941431177&ei=6hhJSYi_BYiKNJah4Cc&sig2=bcCfGnevZp1H1fO43vfSDA&cd=1)" }, "geometry": { "type": "Point", "coordinates": [ -1.283796, 50.875526 ] } },
{ "type": "Feature", "properties": { "Name": "Alverstoke, War Memorial Hospital (N-bound)", "description": null }, "geometry": { "type": "Point", "coordinates": [ -1.14764, 50.79248 ] } },
{ "type": "Feature", "properties": { "Name": "Havant War Memorial Hospital", "description": "59 Cross Way, Havant, Hampshire<br><br>more info » (http:\/\/maps.google.co.uk\/maps?f=q&hl=en&q=Havant+War+Memorial+Hospital,+59+Cross+Way,+Havant,+Hampshire+PO9,+United+Kingdom&jsv=140g&sll=50.79248,-1.14764&sspn=0.011923,0.026093&ie=UTF8&cd=1&geocode=FS_6BwMdke7w_w&latlng=50854447,-987503,4560039749333695154&ei=XxlJSf7xFYW8NtHIoDE&sig2=4oDhZ3ygD8y0gJZqZcNYQQ)" }, "geometry": { "type": "Point", "coordinates": [ -0.987503, 50.854447 ] } },
{ "type": "Feature", "properties": { "Name": "Heatherwood Hospital, Ascot", "description": "High Street, Ascot, Windsor and Maidenhead<br><br>more info » (http:\/\/maps.google.co.uk\/maps?f=q&hl=en&geocode=&q=Heatherwood+hospital,+ascot&jsv=140g&sll=50.854447,-0.987503&sspn=0.012232,0.026093&ie=UTF8&latlng=51410835,-687331,4382966797599950381&ei=dhlJSfDeF4aKNOyXwS4&sig2=IkJ38JWLO5n5cJt3P_T1VQ&cd=1)" }, "geometry": { "type": "Point", "coordinates": [ -0.687331, 51.410835 ] } },
{ "type": "Feature", "properties": { "Name": "Horton General Hospital, Banbury Oxon", "description": "Banbury Oxon, OX16 9AL<br><br>more info » (http:\/\/maps.google.co.uk\/maps?f=q&hl=en&q=The+Horton+General+Hospital,+Banbury,+Oxfordshire+OX16,+United+Kingdom&jsv=140g&sll=51.411067,-0.68682&sspn=0.012086,0.026093&ie=UTF8&cd=1&geocode=FZRGGgMdM6Hr_w&latlng=52054075,-1335454,13288460236275600245&ei=ihlJSbriHoL0NP_e1Dk&sig2=P_ldkdeYmhlhsj-b9JIcBw)" }, "geometry": { "type": "Point", "coordinates": [ -1.335454, 52.054075 ] } },
{ "type": "Feature", "properties": { "Name": "John Radcliffe Hospital", "description": "Headley Way, Headington, Oxford, UK" }, "geometry": { "type": "Point", "coordinates": [ -1.217126, 51.763172 ] } },
{ "type": "Feature", "properties": { "Name": "Lymington Hospital", "description": "Southampton Road, Lymington, Hampshire<br><br>more info » (http:\/\/maps.google.co.uk\/maps?f=q&hl=en&geocode=&q=lymington+hospital&jsv=140g&sll=51.763172,-1.217126&sspn=0.011992,0.026093&ie=UTF8&latlng=50760698,-1550488,2082223840670130593&ei=uxlJSbiDDYK4M8-GqTs&sig2=feRzSXdFRekiUmfP2VmEqw&cd=3)" }, "geometry": { "type": "Point", "coordinates": [ -1.550488, 50.760698 ] } },
{ "type": "Feature", "properties": { "Name": "Lower Buckland, Lymington New Forest Hospital", "description": "more info » (http:\/\/maps.google.co.uk\/maps?f=q&hl=en&geocode=&q=lymington+new+forest+hospital&jsv=140g&sll=50.756767,-1.569157&sspn=0.095455,0.20874&ie=UTF8&latlng=50769420,-1546220,13389402503119021538&ei=2xlJSbG1IYi4NoPC3Sk&sig2=WcrYctl0Lq_vzq1qRmr8Jg&cd=4)" }, "geometry": { "type": "Point", "coordinates": [ -1.54622, 50.76942 ] } },
{ "type": "Feature", "properties": { "Name": "Moorgreen, Moorgreen Hospital (N-bound)", "description": null }, "geometry": { "type": "Point", "coordinates": [ -1.32798, 50.9279 ] } },
{ "type": "Feature", "properties": { "Name": "Milton Keynes General Hospital", "description": "Eaglestone, MK6 5LD<br><br>more info » (http:\/\/maps.google.co.uk\/maps?f=q&hl=en&geocode=&q=milton+keynes+general+hospital&jsv=140g&sll=50.9279,-1.32798&sspn=0.011888,0.026093&ie=UTF8&latlng=52024650,-734240,12254202261690634769&ei=JRpJSfvrD4XaNbC4sTc&sig2=nCLWndDrDBKrWy7lmTVa2g&cd=1)" }, "geometry": { "type": "Point", "coordinates": [ -0.73424, 52.02465 ] } },
{ "type": "Feature", "properties": { "Name": "Capio New Hall Hospital", "description": "Bodenham, Salisbury, Wiltshire, SP5 4EY<br><br>more info » (http:\/\/maps.google.co.uk\/maps?f=q&hl=en&geocode=&q=new+hall+hospital,+salisbury&jsv=140g&sll=52.059668,-0.615921&sspn=0.381225,0.834961&ie=UTF8&latlng=51034431,-1764651,12313590266678914887&ei=RhpJSaWgH4yENpXchDo&sig2=L_SqM52Bcwt-K4L5hHtn9A&cd=1)" }, "geometry": { "type": "Point", "coordinates": [ -1.764651, 51.034431 ] } },
{ "type": "Feature", "properties": { "Name": "North Hampshire Hospital, Basingstoke", "description": "Aldermaston Road<br>Basingstoke, RG24<br><br>more info » (http:\/\/maps.google.co.uk\/maps?f=q&hl=en&q=North+Hampshire+Hospital,+Hampshire,+United+Kingdom&jsv=140g&sll=51.035673,-1.764679&sspn=0.094885,0.20874&ie=UTF8&cd=1&geocode=FSB7DgMdbw_v_w&latlng=51278913,-1111098,6257012835695468975&ei=XhpJScTvLY2ANsSqnCs&sig2=ald5y6QolEXNxK9f3S7gAA)" }, "geometry": { "type": "Point", "coordinates": [ -1.111098, 51.278913 ] } },
{ "type": "Feature", "properties": { "Name": "Nuffield Orthopaedic Centre, Oxford", "description": "<img src=\"https:\/\/lh5.googleusercontent.com\/proxy\/qIF9PNTF1I4rnNRjIKYPXYsJjagEDRbrKQKvXFOey1_u74FiMskjlQPeCmN7Mq9hpPRzhALYRUuc5zd_UgSWk0_eGsRk8I3Q-fDvdC30gjMYts4etSdCNOcm3cEKJGlzzExqSaBeenDz-Zyl_0uenpgAayg\" height=\"200\" width=\"auto\" \/><br><br>Windmill Road<br>Headington, Oxford, OX3<br><br>more info » (http:\/\/maps.google.co.uk\/maps?f=q&hl=en&geocode=&q=nuffield+orthopaedic+centre,+oxford&jsv=140g&sll=51.235697,-1.036835&sspn=0.388217,0.834961&ie=UTF8&latlng=51753649,-1210797,15613593598132892360&ei=fxpJSeqqJYL0NP_e1Dk&sig2=swV-kTAVyC1noWFbfZLVNQ&cd=1)" }, "geometry": { "type": "Point", "coordinates": [ -1.210797, 51.753649 ] } },
{ "type": "Feature", "properties": { "Name": "Oxford Clinic for Specialist Surgery", "description": "Windmill Road<br>Headington, Oxford, OX3<br><br>more info » (http:\/\/maps.google.co.uk\/maps?f=q&hl=en&geocode=&q=oxford+clinic+for+specialist+surgery&jsv=140g&sll=51.754293,-1.210814&sspn=0.046703,0.10437&ie=UTF8&latlng=51753649,-1210797,10616954391993016389&ei=qBpJSfXRH4mONvqrvTQ&sig2=PNzbtqljabtE5bcRFrkmAw&cd=1)" }, "geometry": { "type": "Point", "coordinates": [ -1.210797, 51.753649 ] } },
{ "type": "Feature", "properties": { "Name": "Petersfield Hospital", "description": "<img src=\"https:\/\/lh4.googleusercontent.com\/proxy\/v8dxsyQlaO4DGfgu70kRHQjPJtXa1DJT7cQW5IJckhI4xTZYAcdlOvWJLaP911ndd_2I0t3VLddfq_A6Rh04QqLVun2E1Uyg1pWhwvP3skuwo_oYn-D6ybLlXZalIYPf10IB1nZ4jKLzsJcrMphHoEZsv1c\" height=\"200\" width=\"auto\" \/><br><br>Swan Street<br>Petersfield, GU32<br><br>more info » (http:\/\/maps.google.co.uk\/maps?f=q&hl=en&geocode=&q=petersfield+hospital&jsv=140g&sll=51.754293,-1.210814&sspn=0.046703,0.10437&ie=UTF8&latlng=51004289,-940220,11253544203936145697&ei=xRpJSYiQA4m4NtPdwS4&sig2=8yEDwmt5kkZn_AchlzqlFQ&cd=1)" }, "geometry": { "type": "Point", "coordinates": [ -0.94022, 51.004289 ] } },
{ "type": "Feature", "properties": { "Name": "Queen Alexandra Hospital, Portsmouth", "description": "Cavell Drive<br>Portsmouth, PO6 3<br><br>more info » (http:\/\/maps.google.co.uk\/maps?f=q&hl=en&geocode=&q=queen+alexandra+hospital,+portsmouth&jsv=140g&sll=51.019696,-0.906445&sspn=0.047459,0.10437&ie=UTF8&latlng=50850209,-1072010,9070124156431356574&ei=3BpJSaLtEIS2M5ui5TE&sig2=b2LgWNFzq2MzdjTIqEMMqQ&cd=1)" }, "geometry": { "type": "Point", "coordinates": [ -1.07201, 50.850209 ] } },
{ "type": "Feature", "properties": { "Name": "Radcliffe Infirmary", "description": "Oxford OX2, UK" }, "geometry": { "type": "Point", "coordinates": [ -1.262419, 51.759961 ] } },
{ "type": "Feature", "properties": { "Name": "Romsey Hospital", "description": "Winchester Hill<br>Romsey, Hampshire, SO51 7ZA<br><br>more info » (http:\/\/maps.google.co.uk\/maps?f=q&hl=en&geocode=&q=romsey+hospital,+romsey&jsv=140g&sll=50.986153,-1.481781&sspn=0.023747,0.052185&ie=UTF8&latlng=50992004,-1482002,16324548190040028055&ei=EhtJSf3BHIu0Nuj65To&sig2=wQuxqi58iNs9IcbftE76Lw&cd=1)" }, "geometry": { "type": "Point", "coordinates": [ -1.482002, 50.992004 ] } },
{ "type": "Feature", "properties": { "Name": "Royal Berkshire Hospital", "description": "Reading RG1, UK" }, "geometry": { "type": "Point", "coordinates": [ -0.958922, 51.450648 ] } },
{ "type": "Feature", "properties": { "Name": "Aylesbury, Royal Bucks Hospital (opp)", "description": null }, "geometry": { "type": "Point", "coordinates": [ -0.81656, 51.82041 ] } },
{ "type": "Feature", "properties": { "Name": "Royal Hampshire County Hospital", "description": "Winchester, SO22 5DG<br><br>more info » (http:\/\/maps.google.co.uk\/maps?f=q&hl=en&q=Royal+Hampshire+County+Hospital,+Winchester,+Hampshire+SO22,+United+Kingdom&jsv=140g&sll=51.820567,-0.81655&sspn=0.011659,0.026093&ie=UTF8&cd=1&geocode=FSMlCwMdGbvr_w&latlng=51062120,-1329350,16860462736648391316&ei=kxtJSaCGD4usNvzszDE&sig2=SO1FbewYnsPibbEDgp5fEw)" }, "geometry": { "type": "Point", "coordinates": [ -1.32935, 51.06212 ] } },
{ "type": "Feature", "properties": { "Name": "Royal Hospital Haslar, Gosport", "description": "Royal Hospital Haslar<br>Haslar, PO12 2AA<br><br>more info » (http:\/\/maps.google.co.uk\/maps?f=q&hl=en&geocode=&q=royal+hospital+haslar,+gosport&jsv=140g&sll=51.447072,-0.227862&sspn=0.37616,0.834961&ie=UTF8&latlng=50785588,-1124104,9929420201294851803&ei=2htJSdzyMIz-NbGttCk&sig2=jxQZXUpIUPEQVNKDfgws5A&cd=1)" }, "geometry": { "type": "Point", "coordinates": [ -1.124104, 50.785588 ] } },
{ "type": "Feature", "properties": { "Name": "Southampton, Royal South Hants Hospital", "description": "‎ - <br>more info » (http:\/\/maps.google.co.uk\/maps?f=q&hl=en&geocode=&q=royal+south+hampshire+hospital&jsv=140g&sll=50.794461,-1.118631&sspn=0.023845,0.052185&ie=UTF8&latlng=50903564,-1396932,11745136270229342731&ei=_BtJSambLoj-Ne2PsT4&sig2=S7zVaezQOQMMtvtIYwiwQQ&cd=1)" }, "geometry": { "type": "Point", "coordinates": [ -1.396932, 50.903564 ] } },
{ "type": "Feature", "properties": { "Name": "Southampton General Hospital", "description": "Southampton SO16, UK" }, "geometry": { "type": "Point", "coordinates": [ -1.433051, 50.934269 ] } },
{ "type": "Feature", "properties": { "Name": "Stoke Mandeville Hospital", "description": "Buckinghamshire, UK" }, "geometry": { "type": "Point", "coordinates": [ -0.803289, 51.800473 ] } },
{ "type": "Feature", "properties": { "Name": "Fareham, St Christophers Hospital (N-bound)", "description": "more info » (http:\/\/maps.google.co.uk\/maps?f=q&hl=en&geocode=&q=st+christopher)" }, "geometry": { "type": "Point", "coordinates": [ -1.17777, 50.8595 ] } },
{ "type": "Feature", "properties": { "Name": "St James Hospital", "description": "Locksway Rd, Portsmouth PO4, UK" }, "geometry": { "type": "Point", "coordinates": [ -1.050133, 50.797006 ] } },
{ "type": "Feature", "properties": { "Name": "St Marys Hospital", "description": "Parkhurst Rd, Newport, Isle Of Wight PO30, UK" }, "geometry": { "type": "Point", "coordinates": [ -1.300895, 50.711034 ] } },
{ "type": "Feature", "properties": { "Name": "St Marys Hospital", "description": "West Wing, Milton Rd<br>Portsmouth, Hampshire, PO3 6AD<br><br>more info » (http:\/\/maps.google.co.uk\/maps?f=q&hl=en&geocode=&q=st+mary)" }, "geometry": { "type": "Point", "coordinates": [ -1.063603, 50.800306 ] } },
{ "type": "Feature", "properties": { "Name": "Hampshire Partnership NHS Trust", "description": "Tatchbury Mount<br>Calmore, Southampton, Hampshire, SO40 2RZ<br><br>more info » (http:\/\/maps.google.co.uk\/maps?f=q&hl=en&geocode=&q=tatchbury+mount+hospital,+totton&jsv=140g&sll=50.784016,-1.118546&sspn=0.196009,0.41748&ie=UTF8&latlng=50930603,-1528850,1462456372073322792&ei=ax1JSYT6Aoj-Ne2PsT4&sig2=UD7K1MM2Bzzwub_QBGXO6A&cd=1)" }, "geometry": { "type": "Point", "coordinates": [ -1.52885, 50.930603 ] } },
{ "type": "Feature", "properties": { "Name": "Warneford Hospital", "description": "Warneford La<br>Headington, Oxford, Oxfordshire, OX3 7JX<br><br>more info » (http:\/\/maps.google.co.uk\/maps?f=q&hl=en&geocode=&q=warneford+hospital,+oxford&jsv=140g&sll=50.930603,-1.52885&sspn=0.048848,0.10437&ie=UTF8&latlng=51750794,-1222319,7586180232407139510&ei=1h1JSe7SLYXaNbC4sTc&sig2=Uf1_EhqHhoPPKi8fmNHTHg&cd=1)" }, "geometry": { "type": "Point", "coordinates": [ -1.222319, 51.750794 ] } },
{ "type": "Feature", "properties": { "Name": "Western Communtiy Hospital", "description": "William MacLeod Way, Southampton SO16, UK" }, "geometry": { "type": "Point", "coordinates": [ -1.446049, 50.925186 ] } },
{ "type": "Feature", "properties": { "Name": "Wexham Park Hospital", "description": "Wexham, Slough SL2, UK" }, "geometry": { "type": "Point", "coordinates": [ -0.575387, 51.532187 ] } },
{ "type": "Feature", "properties": { "Name": "Bodmin NHS Treatment Centre", "description": "Boundary Road<br>Bodmin, Bodmin, PL31 2QY<br><br>more info » (http:\/\/maps.google.co.uk\/maps?f=q&hl=en&geocode=&q=bodmin+NHS+Treatment+Centre,+Bodmin&jsv=140g&sll=51.443737,-0.472412&sspn=3.009601,6.679688&ie=UTF8&latlng=50468099,-4747449,3496221311943190605&ei=jx5JSe7xE4TANp-dyDo&sig2=GMFTBvbw07fLs_J4pW_ySQ&cd=1)" }, "geometry": { "type": "Point", "coordinates": [ -4.747449, 50.468099 ] } },
{ "type": "Feature", "properties": { "Name": "Royal Bournemouth General Hospital", "description": "more info » (http:\/\/maps.google.co.uk\/maps?f=q&hl=en&q=Royal+Bournemouth+General+Hospital,+Bournemouth,+United+Kingdom&jsv=140g&sll=50.468099,-4.747449&sspn=0.048021,0.10437&ie=UTF8&cd=1&geocode=FahUBgMdszbk_w&latlng=50745650,-1820890,10444138176392928105&ei=px5JSbiJN4W8NtHIoDE&sig2=iuC4TxCLCodnVmYmW5i7nQ)" }, "geometry": { "type": "Point", "coordinates": [ -1.82089, 50.74565 ] } },
{ "type": "Feature", "properties": { "Name": "Bristol Royal Hospital For Children", "description": "more info » (http:\/\/maps.google.co.uk\/maps?f=q&hl=en&geocode=&q=bristol+royal+hospital+for+children,+bristol&jsv=140g&sll=50.748104,-1.822207&sspn=0.01226,0.026093&ie=UTF8&cd=1&latlng=51457988,-2597171,11100135580103572642&ei=wB5JSfC6H4HMNabp9Sc&sig2=xKMXx9hrPorP2ZaDCf7oAg)" }, "geometry": { "type": "Point", "coordinates": [ -2.597171, 51.457988 ] } },
{ "type": "Feature", "properties": { "Name": "Bristol General Hospital", "description": "<img src=\"https:\/\/lh4.googleusercontent.com\/proxy\/9qwz1ut9EroARJxKEGTGaoAMx013VNyK4qXbfzx4u1y8miQiEgsfRFk-uDaiz0Re8b6Y79W3q2JunB7R9H_qz_eubOeGAH2GA6Ls5q12aRfDfiO_r0LzO4p_vZ9111CJCxSMYOZTZIgkjbwQcu1mHlGAN-4\" height=\"200\" width=\"auto\" \/><br><br>Bristol General Hospital, Guinea St<br>Bristol, Avon, BS1 6SY<br><br>more info » (http:\/\/maps.google.co.uk\/maps?f=q&hl=en&geocode=&q=bristol+general+hospital&jsv=140g&sll=51.457991,-2.597172&sspn=0.011752,0.026093&ie=UTF8&latlng=51446423,-2593613,4320567286856642876&ei=1B5JSdXWHoL0NP_e1Dk&sig2=6JV1A7vt_AHRZKn50u6WtQ&cd=1)" }, "geometry": { "type": "Point", "coordinates": [ -2.593613, 51.446423 ] } },
{ "type": "Feature", "properties": { "Name": "Bristol Royal Infirmary", "description": "Bristol, City of Bristol, UK" }, "geometry": { "type": "Point", "coordinates": [ -2.596164, 51.45848 ] } },
{ "type": "Feature", "properties": { "Name": "Cambourne Redruth Community Hospital", "description": "Barncoose Ter<br>Barncoose, Redruth, Cornwall, TR15 3ER<br><br>more info » (http:\/\/maps.google.co.uk\/maps?f=q&hl=en&geocode=&q=camborne\/Redruth+community+hospital&jsv=140g&sll=51.458927,-2.595735&sspn=0.012073,0.026093&ie=UTF8&latlng=50229424,-5245240,13033120499604236096&ei=BB9JSZb9JofSM92oyDY&sig2=PfftC9PSB25o_PLUHc2lgA&cd=1)" }, "geometry": { "type": "Point", "coordinates": [ -5.24524, 50.229424 ] } },
{ "type": "Feature", "properties": { "Name": "Cheltenham General Hospital", "description": "Cheltenham General Hospital, Sandford Rd<br>Cheltenham, Gloucestershire, GL53 7AN<br><br>more info » (http:\/\/maps.google.co.uk\/maps?f=q&hl=en&geocode=&q=cheltenham+general+hospital&jsv=140g&sll=50.230736,-5.245285&sspn=0.096524,0.20874&ie=UTF8&latlng=51892078,-2071899,16462987337209400743&ei=Gh9JSbbiOI3UNc2ZmCc&sig2=eQg8bTRLsq985A0wS5WvcA&cd=1)" }, "geometry": { "type": "Point", "coordinates": [ -2.071899, 51.892078 ] } },
{ "type": "Feature", "properties": { "Name": "Fairmile, Christchurch Hospital (NW-bound)", "description": "more info » (http:\/\/maps.google.co.uk\/maps?f=q&hl=en&geocode=&q=christchurch+hospital,+dorset&jsv=140g&sll=51.887352,-2.058907&sspn=0.046565,0.10437&ie=UTF8&latlng=50744240,-1787370,11064211912208333347&ei=OB9JSersJIW8NtHIoDE&sig2=3QfSveQajFR5wwuU8-Mh5w&cd=1)" }, "geometry": { "type": "Point", "coordinates": [ -1.78737, 50.74424 ] } },
{ "type": "Feature", "properties": { "Name": "Cossham", "description": "Cossham Memorial Hospital<br>Lodge Road, Bristol, BS15 1LF<br><br>more info » (http:\/\/maps.google.co.uk\/maps?f=q&hl=en&geocode=&q=cossham+memorial+hospital,+bristol&jsv=140g&sll=50.74424,-1.78737&sspn=0.763842,1.669922&ie=UTF8&latlng=51468891,-2516091,9355957529242827507&ei=WB9JSZO0DI3YNqD3sCs&sig2=JNn-NR12fygLyjMdVNpmTw&cd=1)" }, "geometry": { "type": "Point", "coordinates": [ -2.516091, 51.468891 ] } },
{ "type": "Feature", "properties": { "Name": "Derriford Hospital", "description": "Crown Hill Court<br>Crownhill, Plymouth, PL6 5<br><br>more info » (http:\/\/maps.google.co.uk\/maps?f=q&hl=en&geocode=&q=derriford+hospital,+plymouth&jsv=140g&sll=50.392761,-4.128113&sspn=0.098822,0.20874&ie=UTF8&latlng=50407154,-4128495,5327228595794778655&ei=wB9JSfuPA4i4NoPC3Sk&sig2=tbv_th2Dv01Rj30cKai8Bg&cd=1)" }, "geometry": { "type": "Point", "coordinates": [ -4.128495, 50.407154 ] } },
{ "type": "Feature", "properties": { "Name": "The Dorset County Hospital", "description": "Dorset County Hospital, Williams Av<br>Dorchester, Dorset, DT1 2JY<br><br>more info » (http:\/\/maps.google.co.uk\/maps?f=q&hl=en&geocode=&q=dorset+county+hospital&jsv=140g&sll=50.397467,-4.126568&sspn=0.096186,0.20874&ie=UTF8&latlng=50713396,-2447155,400332743450933956&ei=0R9JSZLVJ43UNc2ZmCc&sig2=zC3EhOeNUsyAz_ac5PfDWw&cd=2)" }, "geometry": { "type": "Point", "coordinates": [ -2.447155, 50.713396 ] } },
{ "type": "Feature", "properties": { "Name": "Edward Hain Memorial Hospital, Saint Ives, Cornwall TR26 2BS", "description": "UK" }, "geometry": { "type": "Point", "coordinates": [ -5.479138, 50.207616 ] } },
{ "type": "Feature", "properties": { "Name": "Frenchay Hospital", "description": "Frenchay Park Rd<br>Bristol, Avon, BS16 1LE<br><br>more info » (http:\/\/maps.google.co.uk\/maps?f=q&hl=en&geocode=&q=frenchay+hospital,+bristol&jsv=140g&sll=50.20778,-5.479131&sspn=0.012071,0.026093&ie=UTF8&latlng=51496413,-2528890,17130828120502786790&ei=dSBJSfq5B42yNvyzhD4&sig2=KTX29CuLIfRDRuQ_Nh4NvQ&cd=1)" }, "geometry": { "type": "Point", "coordinates": [ -2.52889, 51.496413 ] } },
{ "type": "Feature", "properties": { "Name": "Gloucestershire Royal Hospital, Gloucester", "description": "Great Western Road<br>Gloucester, GL1<br><br>more info » (http:\/\/maps.google.co.uk\/maps?f=q&hl=en&geocode=&q=gloucestershire+royal+hospital&jsv=140g&sll=51.489721,-2.561016&sspn=0.093953,0.20874&ie=UTF8&latlng=51866283,-2232048,6102079781277475475&ei=jiBJSZf-LI_CNoTGqCY&sig2=JgTv8DozMG7fNDCIrAVbAQ&cd=1)" }, "geometry": { "type": "Point", "coordinates": [ -2.232048, 51.866283 ] } },
{ "type": "Feature", "properties": { "Name": "Great Western Hospital, Swindon", "description": "Downs Way<br>Swindon, SN3<br><br>more info » (http:\/\/maps.google.co.uk\/maps?f=q&hl=en&geocode=&q=great+western+hospital,+swindon&jsv=140g&sll=51.862659,-2.206879&sspn=0.046591,0.10437&ie=UTF8&latlng=51536716,-1727279,7168503558839583952&ei=rCBJSbGoI4W-NpaQqSw&sig2=qzyY43JcAqI8iwE1a36UPA&cd=1)" }, "geometry": { "type": "Point", "coordinates": [ -1.727279, 51.536716 ] } },
{ "type": "Feature", "properties": { "Name": "Helston, Cottage Hospital (opp)", "description": null }, "geometry": { "type": "Point", "coordinates": [ -5.2646, 50.09233 ] } },
{ "type": "Feature", "properties": { "Name": "Essex County Hospital", "description": "Lexden Rd, Colchester, Essex CO3, UK" }, "geometry": { "type": "Point", "coordinates": [ 0.889177, 51.887025 ] } },
{ "type": "Feature", "properties": { "Name": "Musgrove Park Hospital", "description": "Taunton, TA1<br><br>more info » (http:\/\/maps.google.co.uk\/maps?f=q&hl=en&geocode=&q=musgrove+park+hospital,+taunton&jsv=140g&sll=50.09233,-5.2646&sspn=0.012101,0.026093&ie=UTF8&latlng=51011912,-3119819,2825110970811838265&ei=3yBJSZaSH42ENM2K3DI&sig2=rF8id1hWH2Io-TRaDqnJNA&cd=1)" }, "geometry": { "type": "Point", "coordinates": [ -3.119819, 51.011912 ] } },
{ "type": "Feature", "properties": { "Name": "North Devon District Hospital", "description": "Devon EX31, UK" }, "geometry": { "type": "Point", "coordinates": [ -4.051464, 51.091219 ] } },
{ "type": "Feature", "properties": { "Name": "Paulton Memorial Hospital", "description": "more info » (http:\/\/maps.google.co.uk\/maps?f=q&hl=en&geocode=&q=paulton+memorial+hospital,+paulton&jsv=140g&sll=51.089211,-4.052153&sspn=0.024341,0.052185&ie=UTF8&latlng=51299260,-2494430,8300062267106677670&ei=EiFJSeqiIYyENpXchDo&sig2=G5f0I8jYJ_K0BQ7fFZFzJw&cd=1)" }, "geometry": { "type": "Point", "coordinates": [ -2.49443, 51.29926 ] } },
{ "type": "Feature", "properties": { "Name": "Poltair Hospital", "description": "Penzance, Cornwall TR20 8SR, UK" }, "geometry": { "type": "Point", "coordinates": [ -5.560543, 50.129852 ] } },
{ "type": "Feature", "properties": { "Name": "Poole General Hospital", "description": "more info » (http:\/\/maps.google.co.uk\/maps?f=q&hl=en&geocode=&q=poole+hospital,+poole&jsv=140g&sll=50.747535,-1.917458&sspn=0.196162,0.41748&ie=UTF8&latlng=50721890,-1973780,1164220879093376570&ei=eSFJSZHCK42yNvyzhD4&sig2=s3RRJeVzA0ufv8pQo-uNkQ&cd=1)" }, "geometry": { "type": "Point", "coordinates": [ -1.97378, 50.72189 ] } },
{ "type": "Feature", "properties": { "Name": "Royal Cornwall Hospital", "description": "Cornwall TR1, UK" }, "geometry": { "type": "Point", "coordinates": [ -5.09418, 50.265992 ] } },
{ "type": "Feature", "properties": { "Name": "Royal Devon and Exeter Hospital", "description": "Exeter, Devon EX5, UK" }, "geometry": { "type": "Point", "coordinates": [ -3.509767, 50.716345 ] } },
{ "type": "Feature", "properties": { "Name": "Royal National Hospital For Rheumatic Diseases", "description": "<img src=\"https:\/\/lh5.googleusercontent.com\/proxy\/MVpAHGIjrQmHf6eP8dbe3PAil_gnHVce9FmscQtlscTX8Qiwemwi1869rprh5sovrxFIml_50KtZBeG1IywXX7QkrsPblmG8h86hbJPwCkfiEX8rVvEcvYJp9F4BQFSW_WDvxRsM8T9raXsUURZgIxS6e5U\" height=\"200\" width=\"auto\" \/><br><br>NHS Foundation Trust, Upper Borough Walls<br>Bath, Avon, BA1 1RL<br><br>more info » (http:\/\/maps.google.co.uk\/maps?f=q&hl=en&geocode=&q=royal+national+hospital+for+rheumatic+diseases,+bath,+somerset&jsv=140g&sll=50.719262,-3.507915&sspn=0.024535,0.052185&ie=UTF8&latlng=51382553,-2361011,16886135921645578940&ei=0SFJSbqCGIK4M8-GqTs&sig2=spSbFmKu0PATDmIuEOSWrw&cd=1)" }, "geometry": { "type": "Point", "coordinates": [ -2.361011, 51.382553 ] } },
{ "type": "Feature", "properties": { "Name": "Royal United Hospital", "description": "Combe Park<br>City Centre, Bath, BA1 3NG<br><br>more info » (http:\/\/maps.google.co.uk\/maps?f=q&hl=en&geocode=&q=royal+united+hospital&jsv=140g&sll=51.37967,-2.354035&sspn=0.011772,0.026093&ie=UTF8&latlng=51378330,-2362570,8637465717211146432&ei=BCJJSZa-HImGNKL3xTA&sig2=5Orf9gocyueq61ej7adJ1Q&cd=1)" }, "geometry": { "type": "Point", "coordinates": [ -2.36257, 51.37833 ] } },
{ "type": "Feature", "properties": { "Name": "St Anns Hospital", "description": "Dorset HealthCare NHS Trust, 69 Haven Rd<br>Poole, Dorset, BH13 7LN<br><br>more info » (http:\/\/maps.google.co.uk\/maps?f=q&hl=en&geocode=&q=st+ann)" }, "geometry": { "type": "Point", "coordinates": [ -1.927939, 50.698556 ] } },
{ "type": "Feature", "properties": { "Name": "St Michaels Hospital", "description": "<img src=\"https:\/\/lh5.googleusercontent.com\/proxy\/Bqwsqtqmd8Pnldzgaxql2bUUGsbHGeS0_MoavusoEzTuG670m_wRHEXKfC-vinOA8cjtIKNAhRV9sHgVAYj_e-ULTNXCrfBNEsodZgSX8-9fPkV-XgPVtLMlt_IRkcduQTCOfN1qLlbqH3GfBpfCNWXS1VU\" height=\"200\" width=\"auto\" \/><br><br>Southwell St<br>Bristol, Avon, BS2 8EG<br><br>more info » (http:\/\/maps.google.co.uk\/maps?f=q&hl=en&geocode=&q=st+michael)" }, "geometry": { "type": "Point", "coordinates": [ -2.599258, 51.459972 ] } },
{ "type": "Feature", "properties": { "Name": "St Michael's Hospital", "description": "Trelissick Road<br>Hayle, Cornwall, TR27 4JA<br><br>more info » (http:\/\/maps.google.co.uk\/maps?f=q&hl=en&geocode=&q=st+michael)" }, "geometry": { "type": "Point", "coordinates": [ -5.425444, 50.178229 ] } },
{ "type": "Feature", "properties": { "Name": "Salisbury District Hospital, Salisbury", "description": "Odstock Road<br>Salisbury, SP2<br><br>more info » (http:\/\/maps.google.co.uk\/maps?f=q&hl=en&geocode=&q=salisbury+district+hospital&jsv=140g&sll=50.178229,-5.425444&sspn=0.024158,0.052185&ie=UTF8&latlng=51046253,-1790797,7629160585212971493&ei=aCJJSfzrLY3YNqD3sCs&sig2=g9yLMp9Dj79AA7u8rQAXLg&cd=1)" }, "geometry": { "type": "Point", "coordinates": [ -1.790797, 51.046253 ] } },
{ "type": "Feature", "properties": { "Name": "Southmead Hospital, Bristol", "description": "Southmead Road<br>Westbury-on-trym, Bristol, BS10<br><br>more info » (http:\/\/maps.google.co.uk\/maps?f=q&hl=en&geocode=&q=southmead+hospital,+bristol&jsv=140g&sll=51.046253,-1.790797&sspn=0.047432,0.10437&ie=UTF8&latlng=51497221,-2592990,116369270722867715&ei=fyJJSdnxHImGNOL5vTQ&sig2=h922Osdu04eC83GHPJRhng&cd=2)" }, "geometry": { "type": "Point", "coordinates": [ -2.59299, 51.497221 ] } },
{ "type": "Feature", "properties": { "Name": "Salisbury, Old Manor Hospital (E-bound)", "description": "more info » (http:\/\/maps.google.co.uk\/maps?f=q&hl=en&geocode=&q=the+old+manor+hospital,+salisbury&jsv=140g&sll=51.48769,-2.561016&sspn=0.093957,0.20874&ie=UTF8&latlng=51073060,-1809250,301668357540001987&ei=piJJSZLjCYHSM7WIsUA&sig2=aLPZoWzlYpi_XOYSU1z6BQ&cd=1)" }, "geometry": { "type": "Point", "coordinates": [ -1.80925, 51.07306 ] } },
{ "type": "Feature", "properties": { "Name": "Torbay District General Hospital", "description": "Torbay TQ2, UK" }, "geometry": { "type": "Point", "coordinates": [ -3.550966, 50.482736 ] } },
{ "type": "Feature", "properties": { "Name": "West Cornwall Hospital", "description": "St. Clare St<br>Penzance, Cornwall, TR18 2PF<br><br>more info » (http:\/\/maps.google.co.uk\/maps?f=q&hl=en&geocode=&q=west+cornwall+hospital,+penzance&jsv=140g&sll=50.481869,-3.554506&sspn=0.012002,0.026093&ie=UTF8&latlng=50122186,-5542433,854197995978062112&ei=3SJJSYLwDYPMNbqM7Sw&sig2=3y8rvM0BkrCMUzOD_6H6UA&cd=1)" }, "geometry": { "type": "Point", "coordinates": [ -5.542433, 50.122186 ] } },
{ "type": "Feature", "properties": { "Name": "Westminster Memorial", "description": "Abbey Wk<br>Shaftesbury, Dorset, SP7 8BD<br><br>more info » (http:\/\/maps.google.co.uk\/maps?f=q&hl=en&geocode=&q=westminster+memorial+hospital,+dorset&jsv=140g&sll=50.121898,-5.543091&sspn=0.012093,0.026093&ie=UTF8&latlng=51004661,-2200173,9730368793502999257&ei=8SJJSbykJIr6NdOu7DA&sig2=xvGp66H9-eCP0dRrliZ3SA&cd=1)" }, "geometry": { "type": "Point", "coordinates": [ -2.200173, 51.004661 ] } },
{ "type": "Feature", "properties": { "Name": "Weston General Hospital", "description": "Weston-Super-Mare, North Somerset BS24, UK" }, "geometry": { "type": "Point", "coordinates": [ -2.971394, 51.321151 ] } },
{ "type": "Feature", "properties": { "Name": "Addenbrooke's Hospital", "description": "Cambridge, UK" }, "geometry": { "type": "Point", "coordinates": [ 0.144475, 52.176175 ] } },
{ "type": "Feature", "properties": { "Name": "Bedford Hospital (North Wing)", "description": "3 Kimbolton Rd, Bedford MK40, UK" }, "geometry": { "type": "Point", "coordinates": [ -0.459666, 52.141993 ] } },
{ "type": "Feature", "properties": { "Name": "Broomfield Hospital A & E", "description": "Broomfield, Broomfield, CM1<br><br>more info » (http:\/\/maps.google.co.uk\/maps?f=q&hl=en&q=Broomfield+Hospital,+Broomfield,+Chelmsford,+Essex+CM1,+United+Kingdom&jsv=140g&sll=52.140758,-0.455203&sspn=0.023783,0.052185&ie=UTF8&cd=1&geocode=FUQEFgMd7xQHAA&latlng=51774535,465457,4243971439062798043&ei=ICRJSb37EI3UNc2ZmCc&sig2=IDcu99NLoh2ZD8OtRAwoSw)" }, "geometry": { "type": "Point", "coordinates": [ 0.465457, 51.774535 ] } },
{ "type": "Feature", "properties": { "Name": "Colchester General Hospital", "description": "<img src=\"https:\/\/lh6.googleusercontent.com\/proxy\/zP4Xo866_W5IQ6Zkx7fFGwbEM8hm0HA4fOnq1IlfV-b-zMU4x3smaFYXpXF6Ct_SDiaBZS-rgAGk00AiwZvaHwyU-1IQZKwpUsIviyoTh_T16G-gorzHrXiDdTChMMl5\" height=\"200\" width=\"auto\" \/><br><br>Turner Road<br>Colchester, CO4 5JL<br><br>more info » (http:\/\/maps.google.co.uk\/maps?f=q&hl=en&geocode=&q=colchester+general+hospital,+colchester&jsv=140g&sll=51.773696,0.473313&sspn=0.011989,0.026093&ie=UTF8&latlng=51910417,899645,3264140736994835302&ei=RyRJSZCOPIPQM6CZ4To&sig2=TAneRr8L0yMb5A8_XsPrww&cd=1)" }, "geometry": { "type": "Point", "coordinates": [ 0.899645, 51.910417 ] } },
{ "type": "Feature", "properties": { "Name": "Edith Cavell Hospital, Peterborough", "description": "Bretton Gate<br>Bretton, Peterborough, PE3<br><br>more info » (http:\/\/maps.google.co.uk\/maps?f=q&hl=en&geocode=&q=editch+cavell+hospital,+peterborough&jsv=140g&sll=51.909054,0.899827&sspn=0.011953,0.026093&ie=UTF8&latlng=52584794,-278470,5971202067285709157&ei=YyRJSaTzIY2ENM2K3DI&sig2=RXvFKWO3WhiU-a1-TtDHVA&cd=1)" }, "geometry": { "type": "Point", "coordinates": [ -0.27847, 52.584794 ] } },
{ "type": "Feature", "properties": { "Name": "Ipswich Hospital", "description": "Ipswich, Suffolk IP4, UK" }, "geometry": { "type": "Point", "coordinates": [ 1.198153, 52.058759 ] } },
{ "type": "Feature", "properties": { "Name": "Gorleston, James Paget Hospital B (N-bound)", "description": "NR31 6, Gorleston, Great Yarmouth, Norfolk<br><br>more info » (http:\/\/maps.google.co.uk\/maps?f=q&hl=en&geocode=&q=james+paget+hospital,+gorleston&jsv=140g&sll=52.058916,1.198153&sspn=0.011597,0.026093&ie=UTF8&latlng=52561705,1720026,4560494178936881746&ei=wCRJSYmTHY2ANsSqnCs&sig2=LRHG1xpkW8X0Hq48UnKafA&cd=1)" }, "geometry": { "type": "Point", "coordinates": [ 1.720026, 52.561705 ] } },
{ "type": "Feature", "properties": { "Name": "Lister Hospital", "description": "Coreys Mill La<br>Stevenage, SG1 4AB<br><br>more info » (http:\/\/maps.google.co.uk\/maps?f=q&hl=en&q=Lister+Hospital,+Stevenage,+Hertfordshire+SG1,+United+Kingdom&jsv=140g&sll=52.561705,1.720026&sspn=0.011466,0.026093&ie=UTF8&cd=1&geocode=FWVMGAMdmL_8_w&latlng=51924194,-211891,6322804618013200900&ei=3CRJSe-XBYTANp-dyDo&sig2=5LWIOzlBQ50-BC04gOrVZA)" }, "geometry": { "type": "Point", "coordinates": [ -0.211891, 51.924194 ] } },
{ "type": "Feature", "properties": { "Name": "Luton & Dunstable Hospital, Luton", "description": "Lewsey Road<br>Luton, LU4 0<br><br>more info » (http:\/\/maps.google.co.uk\/maps?f=q&hl=en&q=Luton+%26+Dunstable+Hospital,+Lewsey+Rd,+Luton+LU4,+United+Kingdom&jsv=140g&sll=51.924129,-0.212495&sspn=0.011949,0.026093&ie=UTF8&cd=1&geocode=FZ_VFwMdFcD4_w&latlng=51893663,-475115,3886232498144914700&ei=_CRJSc7fLo3ENq2gwTQ&sig2=lsmC_PAcDoMWS1JGCYCmMA)" }, "geometry": { "type": "Point", "coordinates": [ -0.475115, 51.893663 ] } },
{ "type": "Feature", "properties": { "Name": "Norfolk and Norwich University Hospital", "description": "Colney, Norfolk NR4, UK" }, "geometry": { "type": "Point", "coordinates": [ 1.22119, 52.616566 ] } },
{ "type": "Feature", "properties": { "Name": "Norwich Community Hospital", "description": "Bowthorpe Rd<br>Norwich, Norfolk, NR2 3TU<br><br>more info » (http:\/\/maps.google.co.uk\/maps?f=q&hl=en&geocode=&q=norwich+community+hospital,+norwich&jsv=140g&sll=52.627332,1.229868&sspn=0.045795,0.10437&ie=UTF8&cd=1&latlng=52633532,1264498,6538139812639862078&ei=LCdJSfScE43ENq2gwTQ&sig2=X3K4cB4HzvlT79TmHSLJ3Q)" }, "geometry": { "type": "Point", "coordinates": [ 1.264498, 52.633532 ] } },
{ "type": "Feature", "properties": { "Name": "Papworth Everard, Papworth Hospital (o\/s)", "description": "more info » (http:\/\/maps.google.co.uk\/maps?f=q&hl=en&geocode=&q=papworth+hospital,+cambridgeshire&jsv=140g&sll=52.628895,1.277933&sspn=0.366345,0.834961&ie=UTF8&cd=2&latlng=52247990,-116620,739425228009209671&ei=UydJSdriL4zcNq3O_Cc&sig2=EKrFXHTzLUToEevkV2H6Og)" }, "geometry": { "type": "Point", "coordinates": [ -0.11662, 52.24799 ] } },
{ "type": "Feature", "properties": { "Name": "Princess Alexandra Hospital, Harlow", "description": "Hamstel Road<br>Harlow, CM20<br><br>more info » (http:\/\/maps.google.co.uk\/maps?f=q&hl=en&geocode=&q=princess+alexandra+hospital,+harlow&jsv=140g&sll=53.536431,-2.291465&sspn=0.023031,0.052185&ie=UTF8&latlng=51771567,86645,9014696892479022061&ei=2idJSZbMFYzcNq3O_Cc&sig2=PoIbcZ0WebyjQU20rBdjDA&cd=1)" }, "geometry": { "type": "Point", "coordinates": [ 0.086645, 51.771567 ] } },
{ "type": "Feature", "properties": { "Name": "The Queen Elizabeth Hospital King's Lynn NHS Trust", "description": "<img src=\"https:\/\/lh3.googleusercontent.com\/proxy\/gQOsRaCzcBCTY9IGyS1pUG610ex8lWyquLgbhp2Y9hMiGkaR1asMfp-C3C0KLEJAajcVdRCLAdtOooEihd1WOu2UdliOkx8vdd-MlCz-YX5fTeoUbgBkYrcS8Usyk29s\" height=\"200\" width=\"auto\" \/><br><br>Gayton Road<br>King's Lynn, PE30<br><br>more info » (http:\/\/maps.google.co.uk\/maps?f=q&hl=en&geocode=&q=queen+elizabeth+hospital,+kings+lynn&jsv=140g&sll=51.770895,0.086339&sspn=0.01199,0.026093&ie=UTF8&latlng=52756944,445847,13288716911713392979&ei=-SdJSf-uA42yNvyzhD4&sig2=4Hf8Ql6J64fYVqW6cbnClw&cd=1)" }, "geometry": { "type": "Point", "coordinates": [ 0.445847, 52.756944 ] } },
{ "type": "Feature", "properties": { "Name": "Queen Elizabeth II Hospital", "description": "Hertfordshire AL7, UK" }, "geometry": { "type": "Point", "coordinates": [ -0.187283, 51.782985 ] } },
{ "type": "Feature", "properties": { "Name": "St Leonards Hospital", "description": "Newton Rd<br>Sudbury, Suffolk, CO10 2RQ<br><br>more info » (http:\/\/maps.google.co.uk\/maps?f=q&hl=en&geocode=&q=st+leonards+hospital,+sudbury&jsv=140g&sll=51.782166,-0.18732&sspn=0.011987,0.026093&ie=UTF8&latlng=52040977,749265,4965259898278958353&ei=MShJSb7SDI-INsCkrDI&sig2=0eINt6zcmZJf-s4RF_XAqA&cd=1)" }, "geometry": { "type": "Point", "coordinates": [ 0.749265, 52.040977 ] } },
{ "type": "Feature", "properties": { "Name": "Walnuttree Hospital", "description": "Walnut Tree La<br>Sudbury, Suffolk, CO10 1BE<br><br>more info » (http:\/\/maps.google.co.uk\/maps?f=q&hl=en&geocode=&q=walnut+tree+hospital,+sudbury&jsv=140g&sll=52.040977,0.749265&sspn=0.023837,0.052185&ie=UTF8&latlng=52039773,725069,13757550362221534142&ei=RihJSbeXHY2ANsSqnCs&sig2=ppc4UcnPpAwNiMdkZV-SHQ&cd=1)" }, "geometry": { "type": "Point", "coordinates": [ 0.725069, 52.039773 ] } },
{ "type": "Feature", "properties": { "Name": "West Suffolk Hospital", "description": "Hardwick Lane<br>Bury St. Edmunds, IP33 2QZ<br><br>more info » (http:\/\/maps.google.co.uk\/maps?f=q&hl=en&geocode=&q=west+suffolk+hospital,+suffolk&jsv=140g&sll=52.039773,0.725069&sspn=0.011919,0.026093&ie=UTF8&latlng=52231621,709216,8434554347536222619&ei=XyhJSdrHCIu0Nuj65To&sig2=woyIOO5b60fP_sQuzESRQQ&cd=1)" }, "geometry": { "type": "Point", "coordinates": [ 0.709216, 52.231621 ] } },
{ "type": "Feature", "properties": { "Name": "Chesterfield & North Derbyshire Royal Hospital", "description": "Calow, Chesterfield, Derbyshire S44, UK" }, "geometry": { "type": "Point", "coordinates": [ -1.397817, 53.236034 ] } },
{ "type": "Feature", "properties": { "Name": "Derby City General Hospital", "description": "Derby DE22, UK" }, "geometry": { "type": "Point", "coordinates": [ -1.514268, 52.911551 ] } },
{ "type": "Feature", "properties": { "Name": "Mickleover, Childrens Hospital (adj)", "description": null }, "geometry": { "type": "Point", "coordinates": [ -1.51273, 52.90977 ] } },
{ "type": "Feature", "properties": { "Name": "Derbyshire Royal Infirmary", "description": "DE1 2, Derby<br><br>more info » (http:\/\/maps.google.co.uk\/maps?f=q&hl=en&geocode=&q=derbyshire+royal+infirmary,+derby&jsv=140g&sll=52.909575,-1.504869&sspn=0.02275,0.052185&ie=UTF8&latlng=52914234,-1468573,6948810018337252463&ei=2TVKScqUL4fUM-6CuNEM&sig2=A0jOM_1JU7Ds6r4svikvtQ&cd=1)" }, "geometry": { "type": "Point", "coordinates": [ -1.468573, 52.914234 ] } },
{ "type": "Feature", "properties": { "Name": "Glenfield General Hospital, Leicester", "description": "Glenfield General Hospital<br>Groby Road, LE3 9QP<br><br>more info » (http:\/\/maps.google.co.uk\/maps?f=q&hl=en&geocode=&q=glenfield+general+hospital,+glenfield&jsv=140g&sll=52.914936,-1.469439&sspn=0.011373,0.026093&ie=UTF8&latlng=52653655,-1179300,12116452832130860569&ei=7zVKSfbeCYXaNZbR6NgM&sig2=e_sKyKioM-BQtuWGM0TVeg&cd=1)" }, "geometry": { "type": "Point", "coordinates": [ -1.1793, 52.653655 ] } },
{ "type": "Feature", "properties": { "Name": "Grantham & District Hospital", "description": "Grantham, Lincolnshire NG31, UK" }, "geometry": { "type": "Point", "coordinates": [ -0.641241, 52.921829 ] } },
{ "type": "Feature", "properties": { "Name": "Kettering General Hospital", "description": "Rothwell Road<br>Kettering, NN16<br><br>more info » (http:\/\/maps.google.co.uk\/maps?f=q&hl=en&geocode=&q=kettering+general+hospital,+kettering&jsv=140g&sll=52.921367,-0.64155&sspn=0.011372,0.026093&ie=UTF8&latlng=52402078,-741147,11329100922477804183&ei=ODZKSdCzDo2ENMvrvd0M&sig2=_n4iSx4f-A0CfcBpFjKIrA&cd=1)" }, "geometry": { "type": "Point", "coordinates": [ -0.741147, 52.402078 ] } },
{ "type": "Feature", "properties": { "Name": "Leicester Royal Infirmary", "description": "Leicester Royal Infirmary, Infirmary Sq<br>Leicester, Leicestershire, LE1 5WW<br><br>more info » (http:\/\/maps.google.co.uk\/maps?f=q&hl=en&geocode=&q=leicester+royal+infirmary&jsv=140g&sll=52.653817,-1.179271&sspn=0.011442,0.026093&ie=UTF8&latlng=52627788,-1134796,18073917173322408257&ei=AzdKSafWBYqwNo27wNgM&sig2=upFFjkmUhjPYIqQzCnXAsA&cd=1)" }, "geometry": { "type": "Point", "coordinates": [ -1.134796, 52.627788 ] } },
{ "type": "Feature", "properties": { "Name": "Lincoln County Hospital", "description": "Lincoln LN2, UK" }, "geometry": { "type": "Point", "coordinates": [ -0.514655, 53.234091 ] } },
{ "type": "Feature", "properties": { "Name": "County Hospital Louth", "description": "High Holme Road<br>Louth, LN11<br><br>more info » (http:\/\/maps.google.co.uk\/maps?f=q&hl=en&geocode=&q=louth+county+hospital&jsv=140g&sll=53.233719,-0.518294&sspn=0.011598,0.026093&ie=UTF8&latlng=53369759,-8583,12315045939560991374&ei=RDdKSZqWHImqNqO_vMMM&sig2=7h0qzMEEB2HosKlgEzHB8w&cd=1)" }, "geometry": { "type": "Point", "coordinates": [ -0.008583, 53.369759 ] } },
{ "type": "Feature", "properties": { "Name": "Nottingham City Hospital", "description": "Hucknall Rd, Nottingham NG5, UK" }, "geometry": { "type": "Point", "coordinates": [ -1.157456, 52.990964 ] } },
{ "type": "Feature", "properties": { "Name": "the walton centre for neurology and neurosurgery", "description": "Liverpool L9 7LJ" }, "geometry": { "type": "Point", "coordinates": [ -2.930983, 53.466524 ] } },
{ "type": "Feature", "properties": { "Name": "Queens Medical Centre, South Road (SW-bound)", "description": "more info » (http:\/\/maps.google.co.uk\/maps?f=q&hl=en&geocode=&q=queen)" }, "geometry": { "type": "Point", "coordinates": [ -1.18296, 52.94287 ] } },
{ "type": "Feature", "properties": { "Name": "St Andrews Hospital", "description": "Lime Tree Cottages<br>Billing Road, Northampton, NN4 7AD<br><br>more info » (http:\/\/maps.google.co.uk\/maps?f=q&hl=en&geocode=&q=st+andrew)" }, "geometry": { "type": "Point", "coordinates": [ -0.872592, 52.232198 ] } },
{ "type": "Feature", "properties": { "Name": "Northampton General Hospital", "description": "Northampton, UK" }, "geometry": { "type": "Point", "coordinates": [ -0.882639, 52.236192 ] } },
{ "type": "Feature", "properties": { "Name": "West Suffolk Hospital", "description": "Hardwick Lane<br>Bury St. Edmunds, IP33 2QZ<br><br>more info » (http:\/\/maps.google.co.uk\/maps?f=q&hl=en&q=West+Suffolk+Hospital,+Bury+St+Edmunds,+Suffolk+IP33,+United+Kingdom&jsv=140g&sll=52.829321,2.06543&sspn=15.272791,39.682617&ie=UTF8&cd=1&geocode=FQH-HAMdPdIKAA&latlng=52231621,709216,8434554347536222619&ei=OVlKSfGSEYrMNcviycgM&sig2=4kA3oRGTGlt74IjxQ77mYw)" }, "geometry": { "type": "Point", "coordinates": [ 0.709216, 52.231621 ] } },
{ "type": "Feature", "properties": { "Name": "Bishop Auckland General Hospital", "description": "DL14 6, Lcp Stanhope and Wolsingham Parishes And, Durham<br><br>more info » (http:\/\/maps.google.co.uk\/maps?f=q&hl=en&geocode=&q=bishop+auckland+general+hospital,+bishop+auckland&jsv=140g&sll=54.655824,-1.680243&sspn=0.007423,0.019376&ie=UTF8&latlng=54655824,-1680243,4318345435917587894&ei=fVlKSd7iMYnoM9i8mc0M&sig2=m344aIz3RYrXu_A0Qmx0MA&cd=1)" }, "geometry": { "type": "Point", "coordinates": [ -1.680243, 54.655824 ] } },
{ "type": "Feature", "properties": { "Name": "Auckland Park Hospital", "description": "Westfield Road<br>Bishop Auckland, DL14<br><br>more info » (http:\/\/maps.google.co.uk\/maps?f=q&hl=en&geocode=&q=auckland+park+hospital,+bishop+auckland&jsv=140g&sll=54.673632,-1.608467&sspn=0.118715,0.31002&ie=UTF8&cd=1&latlng=54654853,-1680856,10564343266535258566&ei=oVlKSauuL4XaNZbR6NgM&sig2=QmDWgmI9th9zg795BM7oeQ)" }, "geometry": { "type": "Point", "coordinates": [ -1.680856, 54.654853 ] } },
{ "type": "Feature", "properties": { "Name": "Chester-le-Street, Highfield Hospital (N-bound)", "description": null }, "geometry": { "type": "Point", "coordinates": [ -1.57453, 54.86473 ] } },
{ "type": "Feature", "properties": { "Name": "County Hospital", "description": "Durham DH1 4ST UK" }, "geometry": { "type": "Point", "coordinates": [ -1.585603, 54.778781 ] } },
{ "type": "Feature", "properties": { "Name": "Cleveland Nuffield Hospital", "description": "Junction Rd<br>Stockton-on-Tees, Cleveland, TS20 1PX<br><br>more info » (http:\/\/maps.google.co.uk\/maps?f=q&hl=en&geocode=&q=cleveland+nuffield+hospital&jsv=140g&sll=54.7799,-1.585593&sspn=0.007103,0.019376&ie=UTF8&cd=1&latlng=54594000,-1332034,3009364936119150317&ei=b1pKSb30KIiENtaIxdUM&sig2=ENQ223tSgzCvFyDQCDFCsw)" }, "geometry": { "type": "Point", "coordinates": [ -1.332034, 54.594 ] } },
{ "type": "Feature", "properties": { "Name": "Earls House Hospital", "description": "Lanchester Rd, Witton Gilbert, Durham DH1, UK" }, "geometry": { "type": "Point", "coordinates": [ -1.6134, 54.798518 ] } },
{ "type": "Feature", "properties": { "Name": "Darlington Memorial Hospital", "description": "Darlington DL2, UK" }, "geometry": { "type": "Point", "coordinates": [ -1.564372, 54.529631 ] } },
{ "type": "Feature", "properties": { "Name": "Freeman Hospital", "description": "Freeman Rd<br>High Heaton, Newcastle upon Tyne, Tyne and Wear, NE7 7DN<br><br>more info » (http:\/\/maps.google.co.uk\/maps?f=q&hl=en&geocode=&q=freeman+hospital,+newcastle&jsv=140g&sll=54.530608,-1.563663&sspn=0.007446,0.019376&ie=UTF8&latlng=54998383,-1593855,17984713122928957613&ei=tFpKSc3LHIbeNaOQnN0M&sig2=U_V5KWW7Kqy13PjltQG5gQ&cd=1)" }, "geometry": { "type": "Point", "coordinates": [ -1.593855, 54.998383 ] } },
{ "type": "Feature", "properties": { "Name": "Hexham General Hospital", "description": "NE46 1, Hexham, Northumberland<br><br>more info » (http:\/\/maps.google.co.uk\/maps?f=q&hl=en&geocode=&q=hexham+general+hospital,+hexham&jsv=140g&sll=55.007256,-1.593876&sspn=0.056506,0.15501&ie=UTF8&latlng=54969581,-2092950,6718388625109360083&ei=1FpKSaiZAoHMNfTVxMQM&sig2=GvPNRk3mQQkAaqiZ5cSChA&cd=1)" }, "geometry": { "type": "Point", "coordinates": [ -2.09295, 54.969581 ] } },
{ "type": "Feature", "properties": { "Name": "The James Cook University Hospital", "description": "Marton Rd, Middlesbrough TS4, UK" }, "geometry": { "type": "Point", "coordinates": [ -1.217081, 54.556338 ] } },
{ "type": "Feature", "properties": { "Name": "Middleton St George Hospital", "description": "Middleton St George, Darlington DL2, UK" }, "geometry": { "type": "Point", "coordinates": [ -1.431911, 54.516997 ] } },
{ "type": "Feature", "properties": { "Name": "Newcastle General Hospital, Weston Court", "description": "Westgate Rd, Newcastle Upon Tyne NE4, UK" }, "geometry": { "type": "Point", "coordinates": [ -1.64302, 54.974386 ] } },
{ "type": "Feature", "properties": { "Name": "North Tyneside General Hospital", "description": "Rake Ln, North Shields NE29, UK" }, "geometry": { "type": "Point", "coordinates": [ -1.466333, 55.025744 ] } },
{ "type": "Feature", "properties": { "Name": "Queen Elizabeth Hospital, Gateshead", "description": "Queen Elizabeth Avenue<br>NewcastleuponTyne, Sherrif Hill, Tyne and Wear, NE9 6SX<br><br>more info » (http:\/\/maps.google.co.uk\/maps?f=q&hl=en&geocode=&q=queen+elizabeth+hospital,+gateshead&jsv=140g&sll=55.026706,-1.466331&sspn=0.007355,0.019376&ie=UTF8&latlng=54938630,-1583570,15513952615014941181&ei=VFtKSbaPCoz6NbWwvNkM&sig2=NnpI3WD991E8Hl4p_QHfaw&cd=1)" }, "geometry": { "type": "Point", "coordinates": [ -1.58357, 54.93863 ] } },
{ "type": "Feature", "properties": { "Name": "Royal Victoria Infirmary", "description": "Newcastle Upon Tyne NE1 4LP" }, "geometry": { "type": "Point", "coordinates": [ -1.618437, 54.97858 ] } },
{ "type": "Feature", "properties": { "Name": "St Lukes Hospital", "description": "Marton Rd, Middlesbrough TS4, UK" }, "geometry": { "type": "Point", "coordinates": [ -1.215462, 54.556103 ] } },
{ "type": "Feature", "properties": { "Name": "St Nicholas Hospital", "description": "Jubilee Rd, Gosforth, Newcastle Upon Tyne NE3, UK" }, "geometry": { "type": "Point", "coordinates": [ -1.634747, 55.006344 ] } },
{ "type": "Feature", "properties": { "Name": "Shotley Bridge, Hospital (north) (NE-bound)", "description": "more info » (http:\/\/maps.google.co.uk\/maps?f=q&hl=en&geocode=&q=shotley+bridge+community+hospital,+shotley+bridge&jsv=140g&sll=55.007305,-1.634753&sspn=0.007359,0.019376&ie=UTF8&cd=3&latlng=54867970,-1844990,16123117645914714959&ei=NVxKSZeZIYWINpu4hdgM&sig2=hFhA2wU91OLkxf4b5f1FIg)" }, "geometry": { "type": "Point", "coordinates": [ -1.84499, 54.86797 ] } },
{ "type": "Feature", "properties": { "Name": "South Tyneside District Hospital", "description": "more info » (http:\/\/maps.google.co.uk\/maps?f=q&hl=en&geocode=&q=south+tyneside+district+hospital,+south+shields&jsv=140g&sll=54.908199,-1.716614&sspn=0.226583,0.620041&ie=UTF8&latlng=54971818,-1429214,10879110236266335130&ei=kVxKSebwLYmGNKDhjdUM&sig2=TamWDkWc3lrtepkCtartIA&cd=1)" }, "geometry": { "type": "Point", "coordinates": [ -1.429214, 54.971818 ] } },
{ "type": "Feature", "properties": { "Name": "University Hospital Of North Durham", "description": "Dryburn Hospital<br>North Road, DH1 5TW<br><br>more info » (http:\/\/maps.google.co.uk\/maps?f=q&hl=en&geocode=&q=university+hospital+of+north+durham,+durham&jsv=140g&sll=54.972922,-1.42921&sspn=0.007069,0.019376&ie=UTF8&latlng=54788916,-1592917,5665009732653604139&ei=zFxKScvdFYusNrjpqc8M&sig2=qvkDwMHKNjPq80kAGsm3-A&cd=1)" }, "geometry": { "type": "Point", "coordinates": [ -1.592917, 54.788916 ] } },
{ "type": "Feature", "properties": { "Name": "University Hospital Of Hartlepool", "description": "Holdforth Rd, Hartlepool TS24, UK" }, "geometry": { "type": "Point", "coordinates": [ -1.227989, 54.702396 ] } },
{ "type": "Feature", "properties": { "Name": "North Tees University Hospital", "description": "TS19 8, Stockton-on-tees<br><br>more info » (http:\/\/maps.google.co.uk\/maps?f=q&hl=en&q=North+Tees+University+Hospital,+Stockton-on-Tees+TS19,+United+Kingdom&jsv=140g&sll=54.703362,-1.22798&sspn=0.007414,0.019376&ie=UTF8&cd=1&geocode=FZjeQAMdMnPr_w&latlng=54582936,-1346766,11144484179555042014&ei=H11KSdujMIq2Nq6WvcQM&sig2=pUuEZ7SP4X4D6WuCIhoseg)" }, "geometry": { "type": "Point", "coordinates": [ -1.346766, 54.582936 ] } },
{ "type": "Feature", "properties": { "Name": "Wansbeck General Hospital", "description": "NE63 9, Ashington, Northumberland<br><br>more info » (http:\/\/maps.google.co.uk\/maps?f=q&hl=en&geocode=&q=wansbeck+general+hospital,+ashington&jsv=140g&sll=54.583901,-1.346769&sspn=0.007436,0.019376&ie=UTF8&latlng=55184311,-1546597,9051146097028239430&ei=NV1KScqqMIiENtaIxdUM&sig2=r9f3Dht7Ld98VSoDivL_NA&cd=1)" }, "geometry": { "type": "Point", "coordinates": [ -1.546597, 55.184311 ] } },
{ "type": "Feature", "properties": { "Name": "West Lane Hospital", "description": "Acklam Rd<br>Middlesbrough, Cleveland, TS5 4EE<br><br>more info » (http:\/\/maps.google.co.uk\/maps?f=q&hl=en&geocode=&q=west+lane+hospital,+middlesbrough&jsv=140g&sll=55.18541,-1.546605&sspn=0.007032,0.019376&ie=UTF8&latlng=54548675,-1252187,1139076577375501967&ei=SV1KSdi6GYqsNsn00cwM&sig2=Q9rzUZ9d-Zd704nrzplk_Q&cd=1)" }, "geometry": { "type": "Point", "coordinates": [ -1.252187, 54.548675 ] } },
{ "type": "Feature", "properties": { "Name": "West Park Hospital", "description": "Edward Pease Way<br>Darlington, County Durham, DL2 2TS<br><br>more info » (http:\/\/maps.google.co.uk\/maps?f=q&hl=en&geocode=&q=west+park+hospital,+darlington&jsv=140g&sll=54.55763,-1.25227&sspn=0.057138,0.15501&ie=UTF8&latlng=54546600,-1586500,11304461134962840047&ei=c11KSZWmJ4usNrjpqc8M&sig2=PfLyt61Z-5fv3Dd_T-1lng&cd=1)" }, "geometry": { "type": "Point", "coordinates": [ -1.5865, 54.5466 ] } },
{ "type": "Feature", "properties": { "Name": "Pilgrim Hospital", "description": "Boston, PE21 9<br><br>more info » (http:\/\/maps.google.co.uk\/maps?f=q&hl=en&q=Pilgrim+Hospital,+Fishtoft,+Boston,+Lincolnshire+PE21,+United+Kingdom&mrt=all&jsv=140g&sll=53.313442,-0.54657&sspn=0.117735,0.31002&ie=UTF8&cd=1&geocode=FSKVKAMdc9r__w&latlng=52991266,-9613,13513075066236301239&ei=7l1KSfe8BonoM9i8mc0M&sig2=3xp1wo6gZC5QOK3OHIRTzg)" }, "geometry": { "type": "Point", "coordinates": [ -0.009613, 52.991266 ] } },
{ "type": "Feature", "properties": { "Name": "Goole & District Hospital", "description": "DN14 6, Goole, East Riding of Yorkshire<br><br>more info » (http:\/\/maps.google.co.uk\/maps?f=q&hl=en&geocode=&q=goole+and+district+hospital,+goole&mrt=all&jsv=140g&sll=51.658927,2.834473&sspn=11.992277,26.71875&ie=UTF8&latlng=53715427,-874500,5830242108216833618&ei=H2BKSazuGY3UNfGixcQM&sig2=B3V5Ms3mgYG1fP9rKBhjyQ&cd=1)" }, "geometry": { "type": "Point", "coordinates": [ -0.8745, 53.715427 ] } },
{ "type": "Feature", "properties": { "Name": "Harrogate District Hospital", "description": "Harrogate, North Yorkshire HG3, UK" }, "geometry": { "type": "Point", "coordinates": [ -1.5163, 53.993695 ] } },
{ "type": "Feature", "properties": { "Name": "Hornsea Cottage Hospital", "description": "Eastgate<br>Hornsea, North Humberside, HU18 1LP<br><br>more info » (http:\/\/maps.google.co.uk\/maps?f=q&hl=en&geocode=&q=hornsea+cottage+hospital,+hornsea&mrt=all&jsv=140g&sll=53.993845,-1.516306&sspn=0.011088,0.026093&ie=UTF8&latlng=53915273,-168214,8893355686486471025&ei=UGBKSdPrGomONojJndQM&sig2=qE5b9MNB4ZSLcOSbKKQaRA&cd=1)" }, "geometry": { "type": "Point", "coordinates": [ -0.168214, 53.915273 ] } },
{ "type": "Feature", "properties": { "Name": "Hull and East Riding Hospital", "description": "Hull HU10 7AZ" }, "geometry": { "type": "Point", "coordinates": [ -0.43507, 53.739374 ] } },
{ "type": "Feature", "properties": { "Name": "Nuffield Hospital Hull", "description": "Castle Hill Hospital, Entrance 3, Castle Hill<br>Cottingham, North Humberside, HU16 5FQ<br><br>more info » (http:\/\/maps.google.co.uk\/maps?f=q&hl=en&geocode=&q=hull+nuffield+hospital,+cottingham&mrt=all&jsv=140g&sll=53.739523,-0.435076&sspn=0.011156,0.026093&ie=UTF8&latlng=53779085,-436886,12972292033822343791&ei=v2BKSfPeCYiKNOy6qcQM&sig2=y3WEXiF5515Df38bQ8OIdw&cd=1)" }, "geometry": { "type": "Point", "coordinates": [ -0.436886, 53.779085 ] } },
{ "type": "Feature", "properties": { "Name": "Hull Royal Infirmary", "description": "Hull, City of Kingston-upon-Hull HU3, UK" }, "geometry": { "type": "Point", "coordinates": [ -0.358321, 53.743916 ] } },
{ "type": "Feature", "properties": { "Name": "Malton Norton & District", "description": "Malton, North Yorkshire, YO17 7NG<br><br>more info » (http:\/\/maps.google.co.uk\/maps?f=q&hl=en&geocode=&q=malton+community+hospital,+malton&mrt=all&jsv=140g&sll=53.743916,-0.358321&sspn=0.011459,0.026093&ie=UTF8&latlng=54137148,-806526,12324473082073869105&ei=AmFKSbuNFoWINpu4hdgM&sig2=x_bQRO46RADBELTIYtXiRw&cd=1)" }, "geometry": { "type": "Point", "coordinates": [ -0.806526, 54.137148 ] } },
{ "type": "Feature", "properties": { "Name": "Ripon Community Hospital", "description": "Firby La<br>Ripon, North Yorkshire, HG4 2PR<br><br>more info » (http:\/\/maps.google.co.uk\/maps?f=q&hl=en&geocode=&q=ripon+and+district+community+hospital,+ripon&mrt=all&jsv=140g&sll=53.965099,-1.059237&sspn=0.044383,0.10437&ie=UTF8&latlng=54135422,-1527186,4307858715682730854&ei=XmFKScWnBI6KNpuxicsM&sig2=xFrGsWAkc2YL3oiAwZPUHg&cd=1)" }, "geometry": { "type": "Point", "coordinates": [ -1.527186, 54.135422 ] } },
{ "type": "Feature", "properties": { "Name": "St Hugh's Hospital", "description": "St Hugh's Hospital<br>Peaks Lane<br>Grimsby<br>DN32 9RP<br>Tel: 01472 251100<br> <br>http:\/\/www.sthughshospital.co.uk\/<br> <br><br> <br>more info » (http:\/\/maps.google.co.uk\/maps?f=q&hl=en&geocode=&q=st+hugh)" }, "geometry": { "type": "Point", "coordinates": [ -0.071411, 53.554993 ] } },
{ "type": "Feature", "properties": { "Name": "Scarborough General Hospital", "description": "Scarborough Hospital, Woodlands Dr<br>Scarborough, North Yorkshire, YO12 6QL<br><br>more info » (http:\/\/maps.google.co.uk\/maps?f=q&hl=en&q=Scarborough+General+Hospital,+Scarborough,+North+Yorkshire+YO12,+United+Kingdom&mrt=all&jsv=140g&sll=53.594135,-0.164108&sspn=0.358213,0.834961&ie=UTF8&cd=1&geocode=FdZEPAMdvl35_w&latlng=54281711,-434675,16254955464054710681&ei=3GFKSeL2IonoM9i8mc0M&sig2=0R1MLO8MiDXcuwL8Bon6OQ)" }, "geometry": { "type": "Point", "coordinates": [ -0.434675, 54.281711 ] } },
{ "type": "Feature", "properties": { "Name": "Whitby Community Hospital", "description": "YO21 1, Whitby, North Yorkshire<br><br>more info » (http:\/\/maps.google.co.uk\/maps?f=q&hl=en&q=Whitby+Community+Hospital,+Westerdale,+Whitby,+North+Yorkshire+YO22,+United+Kingdom&mrt=all&jsv=140g&sll=54.281934,-0.435222&sspn=0.011312,0.026093&ie=UTF8&cd=1&geocode=FatbPwMdt5f2_w&latlng=54483883,-616521,14677034288222903363&ei=-GFKSfu5A4WINpu4hdgM&sig2=PrK643vMGoKlyd00JtVP0g)" }, "geometry": { "type": "Point", "coordinates": [ -0.616521, 54.483883 ] } },
{ "type": "Feature", "properties": { "Name": "Withernsea Hospital", "description": "HU19 2, Withernsea, North Humberside<br><br>more info » (http:\/\/maps.google.co.uk\/maps?f=q&hl=en&geocode=&q=withernsea+community+hospital&mrt=all&jsv=140g&sll=54.484101,-0.616136&sspn=0.010957,0.026093&ie=UTF8&latlng=53728938,33602,16501466695345917245&ei=FGJKSbu6DIyENtbF-dgM&sig2=qdrnP4rcjPoYkvqg5mhzuw&cd=1)" }, "geometry": { "type": "Point", "coordinates": [ 0.033602, 53.728938 ] } },
{ "type": "Feature", "properties": { "Name": "Clifton, York District Hospital (N-bound)", "description": "Wigginton Road<br>City Centre, York, YO31 8HE<br><br>more info » (http:\/\/maps.google.co.uk\/maps?f=q&hl=en&geocode=&q=york+district+hospital&mrt=all&jsv=140g&sll=53.703211,-0.151062&sspn=0.357288,0.834961&ie=UTF8&latlng=53970561,-1083643,2749065691757588462&ei=NWJKSZ3CA46KNpuxicsM&sig2=gtoIP_jYThQ5trRy8joLOQ&cd=1)" }, "geometry": { "type": "Point", "coordinates": [ -1.083643, 53.970561 ] } },
{ "type": "Feature", "properties": { "Name": "Arrowe Park Hospital", "description": "Wirral CH49, UK" }, "geometry": { "type": "Point", "coordinates": [ -3.096771, 53.370273 ] } },
{ "type": "Feature", "properties": { "Name": "Ashworth Hospital", "description": "Parkbourn<br>Liverpool, Merseyside, L31 1HW<br><br>more info » (http:\/\/maps.google.co.uk\/maps?f=q&hl=en&geocode=&q=ashworth+hospital&mrt=all&jsv=140g&sll=53.369848,-3.095485&sspn=0.011254,0.026093&ie=UTF8&latlng=53519035,-2916055,10185342122833713183&ei=OG9KSbnjK4iKNOy6qcQM&sig2=spO_IijpRGcXvkMLuOy8jg&cd=1)" }, "geometry": { "type": "Point", "coordinates": [ -2.916055, 53.519035 ] } },
{ "type": "Feature", "properties": { "Name": "Royal Liverpool University Hospital", "description": "Prescot St<br>Liverpool, Merseyside, L7 8XP<br><br>more info » (http:\/\/maps.google.co.uk\/maps?f=q&hl=en&geocode=&q=alder+hey+children)" }, "geometry": { "type": "Point", "coordinates": [ -2.964326, 53.410119 ] } },
{ "type": "Feature", "properties": { "Name": "Alder Hey Children's Hospital", "description": "Liverpool L12 2AP" }, "geometry": { "type": "Point", "coordinates": [ -2.89782, 53.421239 ] } },
{ "type": "Feature", "properties": { "Name": "Altrincham General Hospital", "description": "Market St<br>Altrincham, Cheshire, WA14 1PE<br><br>more info » (http:\/\/maps.google.co.uk\/maps?f=q&hl=en&geocode=&q=altrincham+general+hospital&mrt=all&jsv=140g&sll=53.421387,-2.897816&sspn=0.01124,0.026093&ie=UTF8&latlng=53387752,-2352051,4921460720506747220&ei=DHBKSf_fMo3ENrK3wdEM&sig2=t72Xrpvz1Lui_oNracadRw&cd=1)" }, "geometry": { "type": "Point", "coordinates": [ -2.352051, 53.387752 ] } },
{ "type": "Feature", "properties": { "Name": "Billinge Hospital", "description": "Wigan, Lancashire WN5 7ET" }, "geometry": { "type": "Point", "coordinates": [ -2.71328, 53.520552 ] } },
{ "type": "Feature", "properties": { "Name": "Birch Hill Hospital", "description": "Rochdale, UK" }, "geometry": { "type": "Point", "coordinates": [ -2.124932, 53.642077 ] } },
{ "type": "Feature", "properties": { "Name": "Blackpool Victoria Hospital (To Blackpool) (E-bound)", "description": "more info » (http:\/\/maps.google.co.uk\/maps?f=q&hl=en&q=Blackpool+Victoria+Hospital,+Blackpool+FY3,+United+Kingdom&mrt=all&jsv=140g&sll=53.641065,-2.123392&sspn=0.011487,0.026093&ie=UTF8&cd=1&geocode=FQc9NQMds_nR_w&latlng=53821230,-3016620,14614648066990249115&ei=zXBKSfywE4TINov4uMMM&sig2=L8YV5s7EXSRSgZDSnCBk5w)" }, "geometry": { "type": "Point", "coordinates": [ -3.01662, 53.82123 ] } },
{ "type": "Feature", "properties": { "Name": "Booth Hall Children's Hospital", "description": "Manchester, Greater Manchester M9 7AA" }, "geometry": { "type": "Point", "coordinates": [ -2.204281, 53.524428 ] } },
{ "type": "Feature", "properties": { "Name": "Broadgreen Hospital", "description": "Thomas Dr<br>Liverpool, Merseyside, L14 3LB<br><br>more info » (http:\/\/maps.google.co.uk\/maps?f=q&hl=en&geocode=&q=broadgreen+hospital,+liverpool&mrt=all&jsv=140g&sll=53.524428,-2.204281&sspn=0.011213,0.026093&ie=UTF8&latlng=53409784,-2897664,15802901031780018529&ei=NnFKSaLXAo3YNoHshcgM&sig2=Gd7xiw8XXVcBucV6vvnVaw&cd=1)" }, "geometry": { "type": "Point", "coordinates": [ -2.897664, 53.409784 ] } },
{ "type": "Feature", "properties": { "Name": "Burnley General Hospital", "description": "<img src=\"https:\/\/lh6.googleusercontent.com\/proxy\/-86A1-ZTMSLckvUNINsak1kt1ajchCizrcparxXCGCxqTUTtPewd3JGcJC4rjqYtrYk81lbv9ObJLqML5VVy5Eu-ehafdrWt9cqA3V8MDH8GKU1OoEZ-Ii2ZhWtK29F0\" height=\"200\" width=\"auto\" \/><br><br>Casterton Avenue<br>Burnley, BB10<br><br>more info » (http:\/\/maps.google.co.uk\/maps?f=q&hl=en&geocode=&q=burnley+general+hospital,+burnley&mrt=all&jsv=140g&sll=53.445742,-2.946585&sspn=0.089868,0.20874&ie=UTF8&latlng=53809829,-2228173,6579822395093431251&ei=S3FKSazsD4mqNqO_vMMM&sig2=gAUl7EQe4BGCkaOnj30IgA&cd=1)" }, "geometry": { "type": "Point", "coordinates": [ -2.228173, 53.809829 ] } },
{ "type": "Feature", "properties": { "Name": "Cumberland Infirmary, Carlisle", "description": "Newton Road, CA2 7HY<br><br>more info » (http:\/\/maps.google.co.uk\/maps?f=q&hl=en&geocode=&q=cumberland+infirmary,+carlisle&mrt=all&jsv=140g&sll=53.809027,-2.228251&sspn=0.011137,0.026093&ie=UTF8&latlng=54896070,-2958400,5282343031572350784&ei=Y3FKSZTmOZXeNpG6wN0M&sig2=Xgs2VoAU7khGIPN7RcJJlw&cd=1)" }, "geometry": { "type": "Point", "coordinates": [ -2.9584, 54.89607 ] } },
{ "type": "Feature", "properties": { "Name": "Countess of Chester Hospital", "description": "Cheshire, UK" }, "geometry": { "type": "Point", "coordinates": [ -2.898417, 53.208375 ] } },
{ "type": "Feature", "properties": { "Name": "Fairfield General Hospital", "description": "Roch House Fairfield General Hospital, Rochdale Old Rd<br>Bury, Lancashire, BL9 7TD<br><br>more info » (http:\/\/maps.google.co.uk\/maps?f=q&hl=en&geocode=&q=fairfield+hospital,+bury&mrt=all&jsv=140g&sll=53.210967,-2.90024&sspn=0.011604,0.026093&ie=UTF8&latlng=53600499,-2255346,14553714995536622371&ei=jHFKSdzGJojWNeqIxd0M&sig2=UnzAp02zB_zXp6EkeLh_Lw&cd=1)" }, "geometry": { "type": "Point", "coordinates": [ -2.255346, 53.600499 ] } },
{ "type": "Feature", "properties": { "Name": "Fazakerley Hospital", "description": "Lower Lane<br>Liverpool, L9<br><br>more info » (http:\/\/maps.google.co.uk\/maps?f=q&hl=en&geocode=&q=fazakerley+hospital,+liverpool&mrt=all&jsv=140g&sll=53.601113,-2.255373&sspn=0.044769,0.10437&ie=UTF8&latlng=53467911,-2935155,2341792170633365121&ei=p3FKSabBG4fSM_L8kNUM&sig2=H5tnEm-SS3BN_j0mdq4NzQ&cd=1)" }, "geometry": { "type": "Point", "coordinates": [ -2.935155, 53.467911 ] } },
{ "type": "Feature", "properties": { "Name": "Furness General Hospital", "description": "LA14 4, Dalton-in-furness, Cumbria<br><br>more info » (http:\/\/maps.google.co.uk\/maps?f=q&hl=en&q=Furness+General+Hospital,+Dalton-in-Furness,+Cumbria+LA14,+United+Kingdom&mrt=all&jsv=140g&sll=53.46677,-2.929723&sspn=0.011228,0.026093&ie=UTF8&cd=1&geocode=FXoPOgMdcgjP_w&latlng=54136698,-3209102,5632697835161761210&ei=33FKSeb6NImGNKDhjdUM&sig2=dLezrMYVluMyLFvxvaSvBw)" }, "geometry": { "type": "Point", "coordinates": [ -3.209102, 54.136698 ] } },
{ "type": "Feature", "properties": { "Name": "Salford Royal", "description": "Salford, Lancashire M6 8HD" }, "geometry": { "type": "Point", "coordinates": [ -2.323437, 53.487537 ] } },
{ "type": "Feature", "properties": { "Name": "Leigh Infirmary", "description": "The Ave, Pemberton, Leigh, Wigan WN7, UK" }, "geometry": { "type": "Point", "coordinates": [ -2.512635, 53.503387 ] } },
{ "type": "Feature", "properties": { "Name": "Macclesfield District Hospital", "description": "Victoria Rd, Macclesfield, Cheshire SK10, UK" }, "geometry": { "type": "Point", "coordinates": [ -2.141594, 53.262245 ] } },
{ "type": "Feature", "properties": { "Name": "Manchester Royal Eye Hospital", "description": "Nelson St, Manchester, Greater Manchester M13, UK" }, "geometry": { "type": "Point", "coordinates": [ -2.228926, 53.462308 ] } },
{ "type": "Feature", "properties": { "Name": "Manchester Royal Infirmary", "description": "Manchester Royal Infirmary, Oxford Rd<br>Manchester, Lancashire, M13 9WL<br><br>more info » (http:\/\/maps.google.co.uk\/maps?f=q&hl=en&geocode=&q=manchester+royal+infirmary&mrt=all&jsv=140g&sll=53.462299,-2.228808&sspn=0.011536,0.026093&ie=UTF8&latlng=53462427,-2227721,6551928374916080359&ei=nXJKSfDVDIiENtaIxdUM&sig2=Eb4_LOyGgXYg103Tn_i7yw&cd=1)" }, "geometry": { "type": "Point", "coordinates": [ -2.227721, 53.462427 ] } },
{ "type": "Feature", "properties": { "Name": "Cheshire Hospital", "description": "Fir Tree Close, Stretton, Warrington WA4, UK" }, "geometry": { "type": "Point", "coordinates": [ -2.576348, 53.33746 ] } },
{ "type": "Feature", "properties": { "Name": "Manchester (North Manchester General Hospital)", "description": "‎ - <br>more info » (http:\/\/maps.google.co.uk\/maps?f=q&hl=en&geocode=&q=north+manchester+general+infirmary&mrt=all&jsv=140g&sll=53.33746,-2.576348&sspn=0.01157,0.026093&ie=UTF8&cd=1&latlng=53373001,-2266062,573894385085768385&ei=B3NKSaftFYyENtbF-dgM&sig2=2bz6crLhQC9E4YAsc-Pz8Q)" }, "geometry": { "type": "Point", "coordinates": [ -2.266062, 53.373001 ] } },
{ "type": "Feature", "properties": { "Name": "Rochdale Infirmary", "description": "Whitehall Street, OL12 0NB<br><br>more info » (http:\/\/maps.google.co.uk\/maps?f=q&hl=en&geocode=&q=rochdale+infirmary&mrt=all&jsv=140g&sll=53.347272,-2.496643&sspn=0.360303,0.834961&ie=UTF8&latlng=53623860,-2158670,16177016306271316053&ei=JXNKScm5GIqKNNGSmdUM&sig2=AeB2eCMWluS7X66w28dcDQ&cd=1)" }, "geometry": { "type": "Point", "coordinates": [ -2.15867, 53.62386 ] } },
{ "type": "Feature", "properties": { "Name": "Royal Albert Edward Infirmary, Wigan", "description": "Trust HQ, The Elms<br>Wigan La, Wigan, Lancashire, WN1 2NN<br><br>more info » (http:\/\/maps.google.co.uk\/maps?f=q&hl=en&geocode=&q=royal+albert+infirmary,+wigan&mrt=all&jsv=140g&sll=53.628353,-2.160187&sspn=0.357923,0.834961&ie=UTF8&latlng=53557368,-2628666,16730008451279031599&ei=Q3NKScegF4uMNoan9NYM&sig2=qfmkyvOnhQ8hmayGP02Azg&cd=1)" }, "geometry": { "type": "Point", "coordinates": [ -2.628666, 53.557368 ] } },
{ "type": "Feature", "properties": { "Name": "Royal Blackburn Hospital", "description": "Haslingden Rd<br>Blackburn, Lancashire, BB2 3HH<br><br>more info » (http:\/\/maps.google.co.uk\/maps?f=q&hl=en&geocode=&q=royal+blackburn+hospital&mrt=all&jsv=140g&sll=53.578238,-2.610626&sspn=0.092033,0.20874&ie=UTF8&latlng=53737848,-2472509,15410460552704740819&ei=ZnNKSfLgFIPMNa-f9MkM&sig2=NqatmDwkbRzIj3n-SB8U_A&cd=1)" }, "geometry": { "type": "Point", "coordinates": [ -2.472509, 53.737848 ] } },
{ "type": "Feature", "properties": { "Name": "Royal Bolton Hospital, Bolton", "description": "Farnworth, BL4 0JR<br><br>more info » (http:\/\/maps.google.co.uk\/maps?f=q&hl=en&geocode=&q=royal+bolton+hospital&mrt=all&jsv=140g&sll=53.742874,-2.455444&sspn=0.02231,0.052185&ie=UTF8&latlng=53554360,-2425000,17489815754820279051&ei=tHNKSZS3FIusNrjpqc8M&sig2=Y5HjT6XFJn7iejMSwCXSQw&cd=1)" }, "geometry": { "type": "Point", "coordinates": [ -2.425, 53.55436 ] } },
{ "type": "Feature", "properties": { "Name": "The Royal Oldham Hospital", "description": "Oldham OL1, UK" }, "geometry": { "type": "Point", "coordinates": [ -2.121134, 53.553436 ] } },
{ "type": "Feature", "properties": { "Name": "Co-Operative Bank Plc (Royal Preston Hospital)", "description": "PR2 9, Fulwood, Preston, Lancashire<br><br>more info » (http:\/\/maps.google.co.uk\/maps?f=q&hl=en&q=Royal+Preston+Hospital,+Preston,+Lancashire+PR2,+United+Kingdom&jsv=140g&sll=53.553592,-2.121134&sspn=0.011205,0.026093&ie=UTF8&cd=1&geocode=FZjINAMdiLvW_w&latlng=53790872,-2704504,16512910360798059212&ei=8HRKSerqKo2ENMvrvd0M&sig2=rMa5Oh5qeskEsXrN25xacA)" }, "geometry": { "type": "Point", "coordinates": [ -2.704504, 53.790872 ] } },
{ "type": "Feature", "properties": { "Name": "Stepping Hill Hospital", "description": "Stepping Hill Hospital, Poplar Gr<br>Stockport, Cheshire, SK2 7JE<br><br>more info » (http:\/\/maps.google.co.uk\/maps?f=q&hl=en&geocode=&q=stepping+hill+hospital&jsv=140g&sll=53.462428,-2.227722&sspn=0.011229,0.026093&g=M13+9WL&ie=UTF8&latlng=53385200,-2131630,15903868358673519415&ei=WnVKSdCtHoaCNMOvqcgM&sig2=JarAC8tLI5KD3keq1mP0IA&cd=1)" }, "geometry": { "type": "Point", "coordinates": [ -2.13163, 53.3852 ] } },
{ "type": "Feature", "properties": { "Name": "Tameside General Hospital", "description": "Ashton-under-Lyne, Tameside, UK" }, "geometry": { "type": "Point", "coordinates": [ -2.069893, 53.49359 ] } },
{ "type": "Feature", "properties": { "Name": "Trafford General Hospital", "description": "Trafford General Hospital, Moorside Rd<br>Urmston, Manchester, Lancashire, M41 5SL<br><br>more info » (http:\/\/maps.google.co.uk\/maps?f=q&hl=en&geocode=&q=trafford+general+hospital&jsv=140g&sll=53.493576,-2.071814&sspn=0.011527,0.026093&ie=UTF8&latlng=53454051,-2370694,8782952433176543701&ei=h3VKSYS1IYj-NdODoN4M&sig2=JDGYsmfBuWVsS5KhE3jZsA&cd=1)" }, "geometry": { "type": "Point", "coordinates": [ -2.370694, 53.454051 ] } },
{ "type": "Feature", "properties": { "Name": "Warrington Hospital", "description": "Birchwood, Warrington WA5, UK" }, "geometry": { "type": "Point", "coordinates": [ -2.610261, 53.394263 ] } },
{ "type": "Feature", "properties": { "Name": "Kendal, Westmorland General Hospital (S-bound)", "description": "LA9 7, Kendal, Cumbria<br><br>more info » (http:\/\/maps.google.co.uk\/maps?f=q&hl=en&geocode=&q=westmorland+general+hospital&jsv=140g&sll=53.389471,-2.60994&sspn=0.369774,0.834961&ie=UTF8&latlng=54306107,-2732613,9662962009444394883&ei=XHZKSfvBOITINov4uMMM&sig2=uGkXtAeheqYJOTicdwsqYA&cd=3)" }, "geometry": { "type": "Point", "coordinates": [ -2.732613, 54.306107 ] } },
{ "type": "Feature", "properties": { "Name": "Whiston Hospital", "description": "Whiston, Knowsley L35, UK" }, "geometry": { "type": "Point", "coordinates": [ -2.784648, 53.420312 ] } },
{ "type": "Feature", "properties": { "Name": "Withington (Hospital)", "description": "‎ - <br>more info » (http:\/\/maps.google.co.uk\/maps?f=q&hl=en&geocode=&q=withington+hospital,+manchester&jsv=140g&sll=53.42741,-2.235074&sspn=0.022477,0.052185&ie=UTF8&latlng=53476463,-2226030,4941312429355169044&ei=unZKSZfqMYTINov4uMMM&sig2=lCsFCDoimniUGzutj9i4gQ&cd=1)" }, "geometry": { "type": "Point", "coordinates": [ -2.22603, 53.476463 ] } },
{ "type": "Feature", "properties": { "Name": "Wythenshawe Hospital", "description": "Manchester, Greater Manchester M23, UK" }, "geometry": { "type": "Point", "coordinates": [ -2.292752, 53.38834 ] } },
{ "type": "Feature", "properties": { "Name": "Royal Manchester Children's Hospital", "description": "Manchester, Salford M27 4HA" }, "geometry": { "type": "Point", "coordinates": [ -2.318325, 53.507335 ] } },
{ "type": "Feature", "properties": { "Name": "Barnsley Hospital NHS Foundation Trust", "description": "Gawber Rd<br>Barnsley, South Yorkshire, S75 2EP<br><br>more info » (http:\/\/maps.google.co.uk\/maps?f=q&hl=en&geocode=&q=barnsley+hospital+nhs+foundation+trust,+barnsley&jsv=140g&sll=52.703019,-0.351562&sspn=5.853001,13.359375&num=10&ie=UTF8&latlng=53559170,-1497434,12710033025863338079&ei=OYRKSY6UD4beNoXVpdQM&sig2=PWEv2eRsU6_BUZd_y6tcHg&cd=1)" }, "geometry": { "type": "Point", "coordinates": [ -1.497434, 53.55917 ] } },
{ "type": "Feature", "properties": { "Name": "Beighton Community Hospital", "description": "Sevenairs Rd<br>Beighton, Sheffield, South Yorkshire, S20 1NZ<br><br>more info » (http:\/\/maps.google.co.uk\/maps?f=q&hl=en&geocode=&q=beighton+community+hospital,+sheffield&jsv=140g&sll=53.482325,-1.481781&sspn=0.737933,1.669922&ie=UTF8&latlng=53345084,-1350511,405843978526606536&ei=ZYRKSd_DG4XaNZbR6NgM&sig2=FnsqfexPhmPEyz51atEu7w&cd=1)" }, "geometry": { "type": "Point", "coordinates": [ -1.350511, 53.345084 ] } },
{ "type": "Feature", "properties": { "Name": "community paediatrics centenary house", "description": "55 albert terrace road netherthorpe sheffield S6 3BR<br><br>more info » (http:\/\/maps.google.co.uk\/maps?f=q&hl=en&geocode=&q=centenary+house,+sheffield&jsv=140g&sll=53.345084,-1.350511&sspn=0.18508,0.41748&ie=UTF8&latlng=53366559,-1502209,18104997674068827867&ei=fIRKSf3-AYmGNMLd1c4M&sig2=elLPGBQD5ixzHr7kRVSp9w&cd=1)" }, "geometry": { "type": "Point", "coordinates": [ -1.502209, 53.366559 ] } },
{ "type": "Feature", "properties": { "Name": "Claremont Hospital", "description": "401 Sandygate Rd<br>Sheffield, South Yorkshire, S10 5UB<br><br>more info » (http:\/\/maps.google.co.uk\/maps?f=q&hl=en&geocode=&q=claremont+hospital&jsv=140g&sll=53.366559,-1.502209&sspn=0.046247,0.10437&ie=UTF8&latlng=53375780,-1535160,15402884822276777024&ei=oIRKSaWNCIbeNoXVpdQM&sig2=pCBg9uzoSfAjbS0N0uCIrQ&cd=1)" }, "geometry": { "type": "Point", "coordinates": [ -1.53516, 53.37578 ] } },
{ "type": "Feature", "properties": { "Name": "Doncaster Gate Hospital", "description": "Doncaster Gate, Rotherham S65, UK" }, "geometry": { "type": "Point", "coordinates": [ -1.352147, 53.430425 ] } },
{ "type": "Feature", "properties": { "Name": "Doncaster Royal Infirmary", "description": "Doncaster DN2, UK" }, "geometry": { "type": "Point", "coordinates": [ -1.109249, 53.530758 ] } },
{ "type": "Feature", "properties": { "Name": "The Jessop Wing", "description": "Tree Root Walk<br>Sheffield, Sheffield, S10 2<br><br>more info » (http:\/\/maps.google.co.uk\/maps?f=q&hl=en&geocode=&q=jessop+wing,+sheffield&jsv=140g&sll=53.420582,-1.450195&sspn=0.369504,0.834961&ie=UTF8&latlng=53379383,-1493910,11225006993101437530&ei=CIVKSa-SGoTANvfP_NkM&sig2=DKq1ct-4XAegArFu0kSdLg&cd=1)" }, "geometry": { "type": "Point", "coordinates": [ -1.49391, 53.379383 ] } },
{ "type": "Feature", "properties": { "Name": "Montagu Hospital", "description": "Montagu Hospital<br>Adwick Road, S64 0AZ<br><br>more info » (http:\/\/maps.google.co.uk\/maps?f=q&hl=en&geocode=&q=montagu+hospital,+mexborough&jsv=140g&sll=53.380116,-1.494248&sspn=0.011558,0.026093&ie=UTF8&latlng=53499804,-1284937,7652082827101065767&ei=J4VKSYSnEYjWNeqIxd0M&sig2=WeNLVIGAmX8pYyX3YolWbA&cd=1)" }, "geometry": { "type": "Point", "coordinates": [ -1.284937, 53.499804 ] } },
{ "type": "Feature", "properties": { "Name": "Nether Edge, Union Road\/Nether Edge Hospital (N-bound)", "description": "more info » (http:\/\/maps.google.co.uk\/maps?f=q&hl=en&geocode=&q=nether+edge+hospital,+sheffield&jsv=140g&sll=53.499804,-1.284937&sspn=0.023051,0.052185&ie=UTF8&latlng=53360730,-1492470,2717914093240738259&ei=OYVKScH-MoK4M7iH3NwM&sig2=nSS9RqmjG33jqPrbpfc9Kw&cd=1)" }, "geometry": { "type": "Point", "coordinates": [ -1.49247, 53.36073 ] } },
{ "type": "Feature", "properties": { "Name": "Northern General Hospital", "description": "Herries Rd<br>Sheffield, South Yorkshire, S5 7AU<br><br>more info » (http:\/\/maps.google.co.uk\/maps?f=q&hl=en&geocode=&q=northern+general+hospital&jsv=140g&sll=53.36073,-1.49247&sspn=0.092506,0.20874&ie=UTF8&latlng=53410221,-1468745,11100847687764841428&ei=S4VKSaKlAoz0NfT7iMcM&sig2=qBayn4C_Ob6MW14cEvol4w&cd=1)" }, "geometry": { "type": "Point", "coordinates": [ -1.468745, 53.410221 ] } },
{ "type": "Feature", "properties": { "Name": "Capio Park Hill Hospital", "description": "Thorne Rd<br>Doncaster, South Yorkshire, DN2 5TH<br><br>more info » (http:\/\/maps.google.co.uk\/maps?f=q&hl=en&geocode=&q=park+hill+hospital,+doncaster&jsv=140g&sll=53.397251,-1.492424&sspn=0.17994,0.41748&ie=UTF8&latlng=53537201,-1100827,2053248712191441340&ei=cIVKSYOQG4j-NdODoN4M&sig2=6pizMMhACNZirA7RF94p6Q&cd=1)" }, "geometry": { "type": "Point", "coordinates": [ -1.100827, 53.537201 ] } },
{ "type": "Feature", "properties": { "Name": "Royal Hallamshire Hospital", "description": "Glossop Rd, Sheffield S10, UK" }, "geometry": { "type": "Point", "coordinates": [ -1.493461, 53.37846 ] } },
{ "type": "Feature", "properties": { "Name": "Sheffield Children's Hospital, Sheffield", "description": "Western Bank<br>City Centre, Sheffield, S10 2TH<br><br>more info » (http:\/\/maps.google.co.uk\/maps?f=q&hl=en&geocode=&q=rygate+children)" }, "geometry": { "type": "Point", "coordinates": [ -1.49123, 53.380536 ] } },
{ "type": "Feature", "properties": { "Name": "Shirle Hill Hospital School", "description": "6A Cherry Tree Rd<br>Sheffield, South Yorkshire, S11 9AA<br><br>more info » (http:\/\/maps.google.co.uk\/maps?f=q&hl=en&geocode=&q=shirle+hill+hospital,+sheffield&jsv=140g&sll=53.380085,-1.478013&sspn=0.023116,0.052185&ie=UTF8&latlng=53363155,-1492064,11617672396104952203&ei=64VKScDpBYPMNa-f9MkM&sig2=d_nM1dzc9l7pftj23V9nPg&cd=1)" }, "geometry": { "type": "Point", "coordinates": [ -1.492064, 53.363155 ] } },
{ "type": "Feature", "properties": { "Name": "St Catherines Hospital", "description": "St. Catherines Hospital, Tickhill Rd<br>Doncaster, South Yorkshire, DN4 8QN<br><br>more info » (http:\/\/maps.google.co.uk\/maps?f=q&hl=en&geocode=&q=st+catherine)" }, "geometry": { "type": "Point", "coordinates": [ -1.145963, 53.494802 ] } },
{ "type": "Feature", "properties": { "Name": "St Georges Community Health Centre", "description": "St. Georges Hospital, Winter St<br>Sheffield, South Yorkshire, S3 7ND<br><br>more info » (http:\/\/maps.google.co.uk\/maps?f=q&hl=en&geocode=&q=st+george)" }, "geometry": { "type": "Point", "coordinates": [ -1.488542, 53.383715 ] } },
{ "type": "Feature", "properties": { "Name": "Thornbury Hospital", "description": "312 Fulwood Road<br>Norton, S10<br><br>more info » (http:\/\/maps.google.co.uk\/maps?f=q&hl=en&geocode=&q=thornbury+hospital,+sheffield&jsv=140g&sll=53.383715,-1.488542&sspn=0.0225,0.052185&ie=UTF8&latlng=53374335,-1517514,9700998152125639474&ei=PoZKSfWKAoL0NM-xvdgM&sig2=309c6Daq-DrXiRa8QlwHLA&cd=1)" }, "geometry": { "type": "Point", "coordinates": [ -1.517514, 53.374335 ] } },
{ "type": "Feature", "properties": { "Name": "Weston Park Hospital", "description": "Whitham Rd<br>Sheffield, South Yorkshire, S10 2SJ<br><br>more info » (http:\/\/maps.google.co.uk\/maps?f=q&hl=en&geocode=&q=weston+park+hospital,+sheffield&jsv=140g&sll=53.374154,-1.502875&sspn=0.04501,0.10437&ie=UTF8&latlng=53378678,-1498396,2866833633379701653&ei=YoZKSaGZDo2ENMvrvd0M&sig2=RX1ILFX68vVVfzmweXqMOQ&cd=1)" }, "geometry": { "type": "Point", "coordinates": [ -1.498396, 53.378678 ] } },
{ "type": "Feature", "properties": { "Name": "Airedale General Hospital", "description": "Skipton Rd, Steeton, Keighley, Bradford BD20, UK" }, "geometry": { "type": "Point", "coordinates": [ -1.962697, 53.898015 ] } },
{ "type": "Feature", "properties": { "Name": "Birmingham Children's Hospital", "description": "Birmingham B4, UK" }, "geometry": { "type": "Point", "coordinates": [ -1.894521, 52.48498 ] } },
{ "type": "Feature", "properties": { "Name": "Nuffield Hospital Birmingham", "description": "<img src=\"https:\/\/lh3.googleusercontent.com\/proxy\/C4bZT0kp8kgiF1W67ccxj6TO92r0T9PqEyt7cBOyCWMAX5dU3bXHvTv6IWHd2xmqyTucA55b-TIAi3vl24WFGb_aMLBvrPwALZ4EbfQC8AldNZ2RK-Q0nniMY4g0dQXX\" height=\"200\" width=\"auto\" \/><br><br>22 Somerset Road<br>Edgbaston, Birmingham, B15 2, United Kingdom<br><br>more info » (http:\/\/maps.google.com\/maps?f=q&hl=en&geocode=&q=birmingham+nuffield+hospital&jsv=140g&sll=52.485132,-1.894519&sspn=0.011486,0.026093&ie=UTF8&latlng=52458092,-1932239,14313682775351553759&ei=S55LSan_Co7eNbyznPAM&sig2=adqUIMKSdVhvzY69vyR2oQ&cd=1)" }, "geometry": { "type": "Point", "coordinates": [ -1.932239, 52.458092 ] } },
{ "type": "Feature", "properties": { "Name": "Birmingham Women's Hospital", "description": "Metchley Park Road<br>Birmingham, B15, United Kingdom<br><br>more info » (http:\/\/maps.google.com\/maps?f=q&hl=en&geocode=&q=birmingham+women)" }, "geometry": { "type": "Point", "coordinates": [ -1.942253, 52.453155 ] } },
{ "type": "Feature", "properties": { "Name": "City Hospital", "description": "Dudley Rd, Birmingham B18, UK" }, "geometry": { "type": "Point", "coordinates": [ -1.929437, 52.489792 ] } },
{ "type": "Feature", "properties": { "Name": "Ellen Badger Hospital", "description": "Stratford Road, Shipston-on-stour, Warwickshire<br>UK<br><br>more info » (http:\/\/maps.google.com\/maps?f=q&hl=en&q=Ellen+Badger+Hospital,+Stratford+Rd,+Shipston-on-Stour,+Worcestershire+CV36,+United+Kingdom&jsv=140g&sll=52.48964,-1.929431&sspn=0.011798,0.026093&ie=UTF8&cd=1&geocode=FY17GgMd8T3n_w&latlng=52067213,-1622543,7529821663028548930&ei=l55LSYvLL4PANoOs6fUM&sig2=MQDDthVqEsWPRrmETlnHSA)" }, "geometry": { "type": "Point", "coordinates": [ -1.622543, 52.067213 ] } },
{ "type": "Feature", "properties": { "Name": "Whitehouse Common, Good Hope Hospital (opp)", "description": "UK<br><br>more info » (http:\/\/maps.google.com\/maps?f=q&hl=en&geocode=&q=good+hope+hospital&jsv=140g&sll=52.512608,-1.472642&sspn=0.011792,0.026093&ie=UTF8&latlng=52568070,-1808880,12242249110858625965&ei=vp5LSY70BYPANoOs6fUM&sig2=kOEGG6RVCr1O6kdooODgiQ&cd=1)" }, "geometry": { "type": "Point", "coordinates": [ -1.80888, 52.56807 ] } },
{ "type": "Feature", "properties": { "Name": "Heartlands Hospital", "description": "45 Bordesley Green East<br>Bordesley Green, Birmingham, B9, United Kingdom<br><br>more info » (http:\/\/maps.google.com\/maps?f=q&hl=en&geocode=&q=heartlands+hospital&jsv=140g&sll=52.541702,-1.551132&sspn=0.377098,0.834961&ie=UTF8&latlng=52477847,-1827538,8810555778728239119&ei=0J5LSd_DMYjWNcbM3IEN&sig2=Gmu7SGrSP2i_D_faF4asqg&cd=1)" }, "geometry": { "type": "Point", "coordinates": [ -1.827538, 52.477847 ] } },
{ "type": "Feature", "properties": { "Name": "Moseley Hall Hospital", "description": "Moseley Hall Hospital, Alcester Rd<br>Birmingham, West Midlands, B13 8JL, United Kingdom<br><br>more info » (http:\/\/maps.google.com\/maps?f=q&hl=en&geocode=&q=moseley+hall+hospital&jsv=140g&sll=52.541702,-1.551132&sspn=0.377098,0.834961&ie=UTF8&latlng=52445892,-1892901,4037417764145710336&ei=455LSaOsMYuMNoP-kPoM&sig2=Vbez_aVrpbQBBfZhW1VPEA&cd=1)" }, "geometry": { "type": "Point", "coordinates": [ -1.892901, 52.445892 ] } },
{ "type": "Feature", "properties": { "Name": "New Cross, New Cross Hospital (S-Bound)", "description": "UK<br><br>more info » (http:\/\/maps.google.com\/maps?f=q&hl=en&q=New+Cross+Hospital,+Wednesfield,+Wolverhampton,+United+Kingdom&jsv=140g&sll=52.446165,-1.892324&sspn=0.01181,0.026093&ie=UTF8&cd=1&geocode=FReZIgMdUwfg_w&latlng=52598530,-2093090,4358285371671233779&ei=-J5LSarPBIqsNrnAzfAM&sig2=Vd1CyXuMvjUSbBNMpBaLYg)" }, "geometry": { "type": "Point", "coordinates": [ -2.09309, 52.59853 ] } },
{ "type": "Feature", "properties": { "Name": "The Princess Royal Hospital", "description": "TF1 6, Leegomery, Telford, Telford and Wrekin<br>UK<br><br>more info » (http:\/\/maps.google.com\/maps?f=q&hl=en&geocode=&q=princess+royal+hospital,+telford&jsv=140g&sll=52.59838,-2.100487&sspn=0.023538,0.052185&ie=UTF8&latlng=52712429,-2510555,7912746440936704953&ei=CZ9LScWJO4mONvXFiPoM&sig2=C3T0Ut1RQ2u_Gy9t5ygDBg&cd=2)" }, "geometry": { "type": "Point", "coordinates": [ -2.510555, 52.712429 ] } },
{ "type": "Feature", "properties": { "Name": "Robert Jones and Agnes Hunt Orthopaedic and District Hospital NHS Trust", "description": "<img src=\"https:\/\/lh5.googleusercontent.com\/proxy\/XTmgdURpQS5D0JE_o1hGNh-XghMDzqeOOR-zCXHyK-gA-ZHCJABSCpjma8Xh2Hkkn-NGbV9eOZJQpxaU5GOWxAYNiMxD8YVN5InzXCw8XUqX8nyFEoWQXbB__2t5maKD\" height=\"200\" width=\"auto\" \/><br><br>Gobowen, Oswestry, SY10 7AG<br>United Kingdom<br><br>more info » (http:\/\/maps.google.com\/maps?f=q&hl=en&geocode=&q=robert+jones+and+agnes+hunt+orthopaedic+hospital,+oswestry&jsv=140g&sll=52.452191,-1.938121&sspn=0.367823,0.834961&ie=UTF8&latlng=52894640,-3037396,14206706062816609593&ei=Y59LSeCvM43ENvXqoPUM&sig2=mPDgft7PHZg06TZhENqIrQ&cd=1)" }, "geometry": { "type": "Point", "coordinates": [ -3.037396, 52.89464 ] } },
{ "type": "Feature", "properties": { "Name": "The Priory Hospital", "description": "Priory Rd, Edgbaston, Birmingham B5, UK" }, "geometry": { "type": "Point", "coordinates": [ -1.911374, 52.456723 ] } },
{ "type": "Feature", "properties": { "Name": "The Royal Orthopaedic Hospital", "description": "Birmingham B31 2AP" }, "geometry": { "type": "Point", "coordinates": [ -1.960838, 52.421104 ] } },
{ "type": "Feature", "properties": { "Name": "Woodbourne Priory Hospital", "description": "UK<br><br>more info » (http:\/\/maps.google.com\/maps?f=q&hl=en&geocode=&q=the+woodbourne+hospital&jsv=140g&sll=52.421104,-1.960838&sspn=0.011503,0.026093&ie=UTF8&latlng=52472054,-1956941,6343327301118786299&ei=C6BLScHUBYyENurvqP4M&sig2=kxUXJ4_VQKWq90UlkfkIdw&cd=1)" }, "geometry": { "type": "Point", "coordinates": [ -1.956941, 52.472054 ] } },
{ "type": "Feature", "properties": { "Name": "Royal Shrewsbury Hospital, Shrewsbury", "description": "Mytton Oak Road<br>Shrewsbury, SY3 8, United Kingdom<br><br>more info » (http:\/\/maps.google.com\/maps?f=q&hl=en&q=Royal+Shrewsbury+Hospital,+Mytton+Oak+Rd,+Shrewsbury,+Shropshire+SY5,+United+Kingdom&jsv=140g&sll=52.469737,-1.950374&sspn=0.02298,0.052185&ie=UTF8&cd=1&geocode=FUxBJAMd9WPV_w&latlng=52707660,-2792459,5143744056810900934&ei=xaBLSeiWJ4msNpzH7fwM&sig2=YsP_mz5WmFC6Hu6x9LVBZQ)" }, "geometry": { "type": "Point", "coordinates": [ -2.792459, 52.70766 ] } },
{ "type": "Feature", "properties": { "Name": "Sandwell General Hospital", "description": "West Bromwich, B71 4<br> <br>more info » (http:\/\/maps.google.com\/maps?f=q&hl=en&geocode=&q=sandwell+general+hospital&jsv=140g&sll=52.70766,-2.792459&sspn=0.01174,0.026093&ie=UTF8&latlng=52523079,-1977042,14318584029582467093&ei=46BLSa27G4vgNbC2_OsM&sig2=rLmfxVNn0zoxqeVZTVVw1w&cd=5)" }, "geometry": { "type": "Point", "coordinates": [ -1.977042, 52.523079 ] } },
{ "type": "Feature", "properties": { "Name": "Selly Oak Hospital", "description": "Birmingham B29, UK" }, "geometry": { "type": "Point", "coordinates": [ -1.933465, 52.436049 ] } },
{ "type": "Feature", "properties": { "Name": "Spire Parkway Hospital", "description": "Parkway Hospital, 1 Damson Parkway<br>Solihull, West Midlands, B91 2PP, United Kingdom<br><br>more info » (http:\/\/maps.google.com\/maps?f=q&hl=en&geocode=&q=spire+parkway+hospital,+solihull&jsv=140g&sll=52.436831,-1.93553&sspn=0.011499,0.026093&ie=UTF8&latlng=52420456,-1761817,5047549609120163592&ei=Z6FLSaOZIYWINti1if4M&sig2=Gy7WFDGckDyEVWxbJxylRg&cd=1)" }, "geometry": { "type": "Point", "coordinates": [ -1.761817, 52.420456 ] } },
{ "type": "Feature", "properties": { "Name": "St Michaels Hospital", "description": "Warwick CV35, UK" }, "geometry": { "type": "Point", "coordinates": [ -1.594098, 52.288545 ] } },
{ "type": "Feature", "properties": { "Name": "Solihull Hospital", "description": "UK<br><br>more info » (http:\/\/maps.google.com\/maps?f=q&hl=en&geocode=&q=solihull+hospital&jsv=140g&sll=52.288545,-1.594098&sspn=0.011537,0.026093&ie=UTF8&latlng=52417084,-1774806,7778402284074701570&ei=xaFLSdyEPIqKNN7UhPoM&sig2=nNsoDF5WdzpkdVVVqpD1TA&cd=1)" }, "geometry": { "type": "Point", "coordinates": [ -1.774806, 52.417084 ] } },
{ "type": "Feature", "properties": { "Name": "Staffordshire General Hospital", "description": "Staffordshire General Hospital, Weston Rd<br>Stafford, Staffordshire, ST16 3SA, United Kingdom<br><br>more info » (http:\/\/maps.google.com\/maps?f=q&hl=en&geocode=&q=staffordshire+general+hospital&jsv=140g&sll=52.416868,-1.769758&sspn=0.011504,0.026093&ie=UTF8&latlng=52811296,-2097752,8084421230776100949&ei=OaJLSdn_J43YNs777OsM&sig2=kB7Xq___58m6IhSB_1P3LA&cd=1)" }, "geometry": { "type": "Point", "coordinates": [ -2.097752, 52.811296 ] } },
{ "type": "Feature", "properties": { "Name": "Stratford Upon Avon Hospital", "description": "Arden St<br>Stratford-upon-Avon, Warwickshire, CV37 6NX, United Kingdom<br><br>more info » (http:\/\/maps.google.com\/maps?f=q&hl=en&geocode=&q=stratford+hospital,+stratford-upon-avon&jsv=140g&sll=52.806653,-2.080879&sspn=0.045607,0.10437&ie=UTF8&latlng=52194762,-1712218,15768267610574959205&ei=YqJLSce-GoXaNcyZofoM&sig2=2uFIYhSPpbJ8lDgljUOOoQ&cd=1)" }, "geometry": { "type": "Point", "coordinates": [ -1.712218, 52.194762 ] } },
{ "type": "Feature", "properties": { "Name": "University Hospital Coventry", "description": "UK<br><br>more info » (http:\/\/maps.google.com\/maps?f=q&hl=en&geocode=&q=university+hospital+coventry&jsv=140g&sll=52.19243,-1.703954&sspn=0.023124,0.052185&ie=UTF8&latlng=52421436,-1441810,4322133019740889748&ei=iaJLSaXjJoTINpGyiOcM&sig2=9Xq17Nuj3NAra_rufEDofg&cd=6)" }, "geometry": { "type": "Point", "coordinates": [ -1.44181, 52.421436 ] } },
{ "type": "Feature", "properties": { "Name": "University Hospital Of North Staffordshire NHS Trust", "description": "Stoke on Trent, ST4 7PA<br>United Kingdom<br><br>more info » (http:\/\/maps.google.com\/maps?f=q&hl=en&geocode=&q=university+hospital+of+north+staffordshire&jsv=140g&sll=52.497541,-1.972868&sspn=0.734883,1.669922&ie=UTF8&latlng=53004270,-2215370,9156421019210279904&ei=B6NLSZjCF4L0NLjDgf0M&sig2=YmHO-YcbhQFEuObAfqsftQ&cd=1)" }, "geometry": { "type": "Point", "coordinates": [ -2.21537, 53.00427 ] } },
{ "type": "Feature", "properties": { "Name": "North Staffordshire Royal Infirmary", "description": "UK<br><br>more info » (http:\/\/maps.google.com\/maps?f=q&hl=en&geocode=&q=north+staffordshire+royal+infirmary&jsv=140g&sll=53.004945,-2.207286&sspn=0.01135,0.026093&ie=UTF8&latlng=53007880,-2200040,8158614970978721105&ei=M6NLSfjoCIbeNc-x4IEN&sig2=6irRM3S3H56m7dSSrdjQvQ&cd=1)" }, "geometry": { "type": "Point", "coordinates": [ -2.20004, 53.00788 ] } },
{ "type": "Feature", "properties": { "Name": "Warwick Hospital", "description": "Warwick CV35, UK" }, "geometry": { "type": "Point", "coordinates": [ -1.583221, 52.289964 ] } },
{ "type": "Feature", "properties": { "Name": "The Warwickshire Nuffield Hospital", "description": "Warwickshire Nuffield Hospital, The Chase<br>Blackdown, Leamington Spa, Warwickshire, CV32 6RW, United Kingdom<br><br>more info » (http:\/\/maps.google.com\/maps?f=q&hl=en&geocode=&q=warwick+nuffield+hospital&jsv=140g&sll=52.289964,-1.583221&sspn=0.011537,0.026093&ie=UTF8&latlng=52308909,-1543365,4892266015264489648&ei=XaNLSZ_PHoaCNI6ShOsM&sig2=nnA4l27BszRiv8vEiv1krQ&cd=1)" }, "geometry": { "type": "Point", "coordinates": [ -1.543365, 52.308909 ] } },
{ "type": "Feature", "properties": { "Name": "West Heath Hospital", "description": "UK<br><br>more info » (http:\/\/maps.google.com\/maps?f=q&hl=en&geocode=&q=west+heath+hospital,+birmingham&jsv=140g&sll=52.308909,-1.543365&sspn=0.092255,0.20874&ie=UTF8&latlng=52398322,-1952667,15094386915953788790&ei=cqNLScr_FIvgNbC2_OsM&sig2=wth7rYSgslzqbVr0soR9Tg&cd=1)" }, "geometry": { "type": "Point", "coordinates": [ -1.952667, 52.398322 ] } },
{ "type": "Feature", "properties": { "Name": "Worcestershire Royal Hospital", "description": "Worcestershire WR5, UK" }, "geometry": { "type": "Point", "coordinates": [ -2.179312, 52.190539 ] } },
{ "type": "Feature", "properties": { "Name": "Watford General Hospital", "description": "60 Vicarage Rd<br>Watford, Hertfordshire, WD18 0HB, United Kingdom<br><br>more info » (http:\/\/maps.google.com\/maps?f=q&hl=en&geocode=&q=watford+general+hospital&jsv=140g&sll=52.130116,0.076904&sspn=2.964171,6.679687&ie=UTF8&latlng=51649000,-404457,15773873415345048670&ei=3KNLSeyBHo3YNs777OsM&sig2=8YyP7PokDNyvFOmevEtb-w&cd=1)" }, "geometry": { "type": "Point", "coordinates": [ -0.404457, 51.649 ] } },
{ "type": "Feature", "properties": { "Name": "St James University Hospital", "description": "St Jamess University Hosp<br>Beckett Street, LS9 7TF, UK<br><br>more info » (http:\/\/maps.google.com\/maps?f=q&hl=en&geocode=&q=st+james+university+hospital&jsv=140g&sll=51.930718,3.098145&sspn=11.92073,26.71875&ie=UTF8&latlng=53807293,-1519072,3335069280875049421&ei=uqRLSaPeOIjWNcbM3IEN&sig2=1QL0d69svCLx0Sj79zZj7w&cd=1)" }, "geometry": { "type": "Point", "coordinates": [ -1.519072, 53.807293 ] } },
{ "type": "Feature", "properties": { "Name": "Royal United Hospital, Bath", "description": "Royal United Hospital<br>Combe Park, BA1 3NG, UK<br><br>more info » (http:\/\/maps.google.com\/maps?f=q&hl=en&geocode=&q=royal+united+hospital&jsv=140g&sll=51.387745,-2.380943&sspn=0.096734,0.20874&ie=UTF8&latlng=51390527,-2391563,7406045365838180201&ei=N6ZLSbKNOo3ENsbrvPYM&sig2=FucnB0yEQw1JXCLADJkaUw&cd=1)" }, "geometry": { "type": "Point", "coordinates": [ -2.391563, 51.390527 ] } },
{ "type": "Feature", "properties": { "Name": "Bideford and District Hospital", "description": "Abbotsham Road<br>Bideford, EX39 3AG, United Kingdom<br><br>more info » (http:\/\/maps.google.com\/maps?f=q&hl=en&q=Bideford+and+District+Hospital,+Bideford,+Devon+EX39,+United+Kingdom&jsv=140g&sll=51.012459,-4.210982&sspn=0.024381,0.052185&ie=UTF8&cd=1&geocode=FWJ4CgMd5ri__w&latlng=51018014,-4213860,3805001478617453990&ei=t6ZLSdXyHY6KNsHd4e8M&sig2=mRJJxglY7XEGUcS94-O2bQ)" }, "geometry": { "type": "Point", "coordinates": [ -4.21386, 51.018014 ] } },
{ "type": "Feature", "properties": { "Name": "Alfred Bean Hospital", "description": "Driffield YO25 5JR" }, "geometry": { "type": "Point", "coordinates": [ -0.423091, 54.01226 ] } },
{ "type": "Feature", "properties": { "Name": "Westwood Hospital", "description": "Westwood Hospital, Woodlands<br>Beverley, North Humberside, HU17 8BU, United Kingdom<br><br>more info » (http:\/\/maps.google.com\/maps?f=q&hl=en&geocode=&q=Beverly+Westwood+Hospital,+Beverley&jsv=140g&sll=54.01226,-0.423091&sspn=0.011386,0.026093&ie=UTF8&latlng=53841646,-440089,8418527386105056979&ei=BK1LSe2gI4L0NLjDgf0M&sig2=5wl5r9gzLufx-Em4zNFYhA&cd=1)" }, "geometry": { "type": "Point", "coordinates": [ -0.440089, 53.841646 ] } },